Latitude,Longitude,Address,Property_type,Rooms,Home_size,Lot Size,Year_built,Parcel_number,RealtyID,County,Subdivision,Census,Tract,Lot,Zoning,Date,Sale_price,Estimated Value,url,zoning
34.574381,-118.037508,38058 Lido Dr,Single Family Residence,"4 beds, 3 baths","1,979 sqft","7,036 sqft",1989.0,3023054044,1110738665,Los Angeles,45073,1.0,910713.0,45,PDA2*,09/16/2020,"$350,000","$334,000",https://www.realtytrac.com/property/ca/palmdale/93552/38058-lido-dr/16671462/,PDA2*
34.029588000000004,-118.34438,4711 W 29th St,Single Family Residence,"2 beds, 1 bath","1,132 sqft","2,750 sqft",1927.0,5057008024,1110724102,Los Angeles,5780,5.0,220000.0,623,LAR2,09/16/2020,"$888,000","$794,000",https://www.realtytrac.com/property/ca/los-angeles/90016/4711-w-29th-st/154636126/,LAR2
33.988015999999995,-117.984728,15362 Del Prado Dr,Single Family Residence,"4 beds, 3 baths","2,462 sqft","10,250 sqft",1970.0,8290004038,1110725454,Los Angeles,29726,3.0,408503.0,10,LCRA1L,09/16/2020,"$890,000","$802,000",https://www.realtytrac.com/property/ca/hacienda-heights/91745/15362-del-prado-dr/49086164/,LCRA1L
33.879723,-118.06501499999999,16622 Shenandoah Ave,Condominium,"2 beds, 2 baths",904 sqft,"7,007 sqft",1973.0,7012006007,1110725503,Los Angeles,31077,1.0,554514.0,,CERM,09/16/2020,"$420,000","$428,000",https://www.realtytrac.com/property/ca/cerritos/90703/16622-shenandoah-ave/4419219/,CERM
34.051043,-118.254448,633 W 5th St,Office Building,,30.9 acres,1.17 acres,1988.0,5151017028,1110725507,Los Angeles,MOTT,1.0,207502.0,6,LAC5,09/16/2020,"$430,000,000",,https://www.realtytrac.com/property/ca/los-angeles/90071/633-w-5th-st/154657099/,LAC5
34.014427000000005,-117.869175,3505 S Flemington Dr,Single Family Residence,"3 beds, 2 baths","1,272 sqft","6,734 sqft",1964.0,8722006029,1110726179,Los Angeles,27416,1.0,408136.0,280,WCR1*,09/16/2020,"$597,500","$574,000",https://www.realtytrac.com/property/ca/west-covina/91792/3505-s-flemington-dr/155000757/,WCR1*
34.011416,-118.414405,3913 Bentley Ave # 4,Condominium,"3 beds, 3 baths","2,120 sqft","7,505 sqft",2005.0,4213017054,1110726706,Los Angeles,TALAMANTES ALLOTS,1.0,702801.0,1,CCR4*,09/16/2020,"$1,275,000","$1,057,000",https://www.realtytrac.com/property/ca/culver-city/90232/3913-bentley-ave-4/146537486/,CCR4*
34.166037,-118.348804,921 N Kenwood St,Single Family Residence,"2 beds, 1 bath","1,042 sqft","6,750 sqft",1941.0,2481003020,1110727511,Los Angeles,6259,1.0,311400.0,45,BUR2*,09/16/2020,"$775,000","$829,000",https://www.realtytrac.com/property/ca/burbank/91505/921-n-kenwood-st/154431994/,BUR2*
34.087306,-118.247804,1421 Ewing St,Single Family Residence,"1 bed, 1 bath",736 sqft,"7,370 sqft",1930.0,5415009009,1110728144,Los Angeles,ELYSIAN VIEW,1.0,197300.0,10,LAR1,09/16/2020,"$868,000","$911,000",https://www.realtytrac.com/property/ca/los-angeles/90026/1421-ewing-st/45927064/,LAR1
34.171048,-118.385084,11616 Killion St,Single Family Residence,"3 beds, 1 bath",996 sqft,"6,209 sqft",1944.0,2350002041,1110728783,Los Angeles,11407,1.0,125200.0,28,LAR1,09/16/2020,"$800,000","$603,000",https://www.realtytrac.com/property/ca/north-hollywood/91601/11616-killion-st/148775631/,LAR1
34.171044,-118.326499,1809 W Clark Ave,Single Family Residence,"2 beds, 1 bath","1,000 sqft","6,892 sqft",1926.0,2447014004,1110728845,Los Angeles,5427,4.0,310800.0,4,BUR1YY,09/16/2020,"$850,000","$790,000",https://www.realtytrac.com/property/ca/burbank/91506/1809-w-clark-ave/154425671/,BUR1YY
33.864407,-118.17595700000001,1309 E 60th St,Single Family Residence,"3 beds, 3 baths","1,961 sqft","5,712 sqft",1971.0,7123001032,1110728852,Los Angeles,7846,4.0,570501.0,53,LBR1N,07/30/1999,,"$727,000",https://www.realtytrac.com/property/ca/long-beach/90805/1309-e-60th-st/154861510/,LBR1N
33.87508,-118.40009099999999,2904 Hermosa View Dr,Single Family Residence,"4 beds, 3 baths","3,400 sqft","7,029 sqft",1967.0,4169032019,1110729471,Los Angeles,28895,1.0,621001.0,11,HBR1YY,09/16/2020,"$3,999,000","$2,817,000",https://www.realtytrac.com/property/ca/hermosa-beach/90254/2904-hermosa-view-dr/143296565/,HBR1YY
34.149364,-118.02794499999999,904 N 1st Ave # A,Condominium,"3 beds, 3 baths","1,752 sqft",0.83 acres,1988.0,5772013049,1110730091,Los Angeles,45634,4.0,430400.0,1,ARR2*,09/16/2020,"$750,000","$734,000",https://www.realtytrac.com/property/ca/arcadia/91006/904-n-1st-ave-a/154649539/,ARR2*
34.612778000000006,-118.129601,40113 Cantara Dr,Condominium,"3 beds, 2 baths","1,327 sqft",5.96 acres,1998.0,3006025067,1110730741,Los Angeles,46925,1.0,910201.0,2,PDRPD18U,09/16/2020,"$295,000","$263,000",https://www.realtytrac.com/property/ca/palmdale/93550/40113-cantara-dr/26838984/,PDRPD18U
34.059683,-118.38016499999999,8653 W Olympic Blvd,"Triplex (3 units, any combination)","7 beds, 6 baths","4,937 sqft","6,316 sqft",1939.0,4333021001,1110731428,Los Angeles,8439,1.0,216402.0,1,LAR3,09/16/2020,"$2,396,000","$2,412,000",https://www.realtytrac.com/property/ca/los-angeles/90035/8653-w-olympic-blvd/30556173/,LAR3
34.038049,-118.47306299999998,1232 Stanford St # 3,Condominium,"2 beds, 3 baths","1,215 sqft","17,036 sqft",1974.0,4267004063,1110732002,Los Angeles,32232,1.0,701602.0,,SMR2*,09/16/2020,"$915,000","$1,063,000",https://www.realtytrac.com/property/ca/santa-monica/90404/1232-stanford-st-3/154546240/,SMR2*
34.255225,-118.417634,13067 Goleta St,Single Family Residence,"4 beds, 3 baths","1,906 sqft","7,500 sqft",1946.0,2623011004,1110732778,Los Angeles,6685,1.0,104620.0,28,LAR1,09/16/2020,"$565,000","$552,000",https://www.realtytrac.com/property/ca/pacoima/91331/13067-goleta-st/30621770/,LAR1
34.144434999999994,-118.022921,306 Joyce Ave,Single Family Residence,"3 beds, 2 baths","1,441 sqft","8,958 sqft",1947.0,5772029053,1110734109,Los Angeles,13560,1.0,430801.0,11,ARR1*,09/16/2020,"$890,000","$892,000",https://www.realtytrac.com/property/ca/arcadia/91006/306-joyce-ave/30421332/,ARR1*
34.043918,-118.301245,2059 Venice Blvd,Vacant Commercial,,,"5,501 sqft",1930.0,5075013016,1110734710,Los Angeles,5954,2.0,221210.0,2,LAC1,09/16/2020,"$2,500,000",,https://www.realtytrac.com/property/ca/los-angeles/90006/2059-venice-blvd/154640385/,LAC1
33.870278000000006,-118.370302,2303 Rockefeller Ln # A,Condominium,"3 beds, 3 baths","1,678 sqft","7,505 sqft",1975.0,4157011045,1110735422,Los Angeles,REDONDO VILLA TR,4.0,620601.0,1,RBR-3,09/16/2020,"$815,000","$752,000",https://www.realtytrac.com/property/ca/redondo-beach/90278/2303-rockefeller-ln-a/53423959/,RBR-3
34.045953999999995,-118.464119,1215 Armacost Ave # 203,Condominium,"2 beds, 2 baths","1,090 sqft","9,599 sqft",2007.0,4263005148,1110736719,Los Angeles,49641,1.0,267402.0,1,LAR3,09/16/2020,"$820,000","$854,000",https://www.realtytrac.com/property/ca/los-angeles/90025/1215-armacost-ave-203/155022107/,LAR3
34.092821,-118.367026,1234 Havenhurst Dr # 8,Condominium,"2 beds, 2 baths","1,007 sqft","14,919 sqft",1955.0,5554009036,1110736720,Los Angeles,37062,5.0,700200.0,1,WDR4*,09/16/2020,"$662,000","$777,000",https://www.realtytrac.com/property/ca/west-hollywood/90046/1234-havenhurst-dr-8/52170356/,WDR4*
34.4373,-118.5154,27629 Solana Way,Condominium,"4 beds, 4 baths","3,516 sqft",0.76 acres,2017.0,2801028091,1110736725,Los Angeles,,1.0,920028.0,1,SCUR3,09/16/2020,"$760,000","$757,000",https://www.realtytrac.com/property/ca/santa-clarita/91350/27629-solana-way/323430688/,SCUR3
34.172798,-118.60099699999999,21620 Burbank Blvd # 10,Condominium,"3 beds, 3 baths","1,595 sqft",2.74 acres,1981.0,2146007035,1110738650,Los Angeles,38707,1.0,137103.0,,LAWC,09/16/2020,"$580,000","$575,000",https://www.realtytrac.com/property/ca/woodland-hls/91367/21620-burbank-blvd-10/7102759/,LAWC
34.574381,-118.037508,38058 Lido Dr,Single Family Residence,"4 beds, 3 baths","1,979 sqft","7,036 sqft",1989.0,3023054044,1110738665,Los Angeles,45073,1.0,910713.0,45,PDA2*,09/16/2020,"$350,000","$334,000",https://www.realtytrac.com/property/ca/palmdale/93552/38058-lido-dr/16671462/,PDA2*
34.139302,-117.998731,150 E Cypress Ave,Single Family Residence,"4 beds, 3 baths","2,082 sqft","8,555 sqft",1948.0,8508012036,1110739957,Los Angeles,6697,3.0,431100.0,20,MORL*,02/28/2018,"$662,000","$812,000",https://www.realtytrac.com/property/ca/monrovia/91016/150-e-cypress-ave/34821766/,MORL*
33.870331,-118.176778,1221 E Poinsettia St,Single Family Residence,"2 beds, 1 bath","1,076 sqft","5,047 sqft",1929.0,7114023002,1110868248,Los Angeles,7261,3.0,570501.0,130,LBR1N,09/21/2020,"$515,000","$509,000",https://www.realtytrac.com/property/ca/long-beach/90805/1221-e-poinsettia-st/24866478/,LBR1N
34.031621,-118.71584299999999,24818 Malibu Rd,Single Family Residence,"3 beds, 4 baths","2,810 sqft","6,934 sqft",1990.0,4458013010,1110740721,Los Angeles,13157,1.0,800410.0,73,LCR1*,09/16/2020,"$7,800,000","$2,627,000",https://www.realtytrac.com/property/ca/malibu/90265/24818-malibu-rd/30086624/,LCR1*
34.175688,-118.222974,1865 Verdugo Knolls Dr,Single Family Residence,"4 beds, 3 baths","2,278 sqft","9,837 sqft",1924.0,5652019019,1110740748,Los Angeles,4873,1.0,300800.0,16,GLR1*,09/16/2020,"$1,194,000","$1,210,000",https://www.realtytrac.com/property/ca/glendale/91208/1865-verdugo-knolls-dr/154641851/,GLR1*
34.064384000000004,-118.312069,533 S St Andrews Pl # 301,Condominium,"2 beds, 2 baths",996 sqft,0.78 acres,1987.0,5504029063,1110742049,Los Angeles,50428,2.0,211704.0,1,LAR4,09/16/2020,"$490,000","$557,000",https://www.realtytrac.com/property/ca/los-angeles/90020/533-s-st-andrews-pl-301/141970103/,LAR4
33.880426,-118.156756,3051 E 69th St,Single Family Residence,"4 beds, 3 baths","1,770 sqft","6,167 sqft",1957.0,7113012030,1110743915,Los Angeles,22719,1.0,570203.0,16,LBR1N,09/16/2020,"$485,000","$574,000",https://www.realtytrac.com/property/ca/long-beach/90805/3051-e-69th-st/53149704/,LBR1N
34.073875,-118.50605800000001,13540 Bayliss Rd,Single Family Residence,"3 beds, 3 baths","2,613 sqft","13,992 sqft",1964.0,4492016013,1110743978,Los Angeles,23094,2.0,262400.0,26,LARE15,09/16/2020,"$2,750,000","$2,401,000",https://www.realtytrac.com/property/ca/los-angeles/90049/13540-bayliss-rd/28393642/,LARE15
34.163508,-118.526494,5153 Hesperia Ave,Single Family Residence,"3 beds, 2 baths","1,431 sqft","6,504 sqft",1948.0,2181003019,1110744652,Los Angeles,15126,2.0,139502.0,40,LAR1,09/16/2020,"$880,000","$836,000",https://www.realtytrac.com/property/ca/encino/91316/5153-hesperia-ave/25225582/,LAR1
33.780221000000004,-118.15320200000001,1066 Coronado Ave,Apartment house (5+ units),"16 beds, 16 baths","7,208 sqft","6,250 sqft",1986.0,7258006007,1110744715,Los Angeles,HARPER TR,1.0,576903.0,7,LBR2N,09/16/2020,"$2,405,000","$848,000",https://www.realtytrac.com/property/ca/long-beach/90804/1066-coronado-ave/43792862/,LBR2N
33.931443,-118.26678899999999,440 E Lanzit Ave,Single Family Residence,"4 beds, 1 bath",722 sqft,"3,290 sqft",1924.0,6073028004,1110779079,Los Angeles,3598,3.0,240900.0,19,LAR4,09/17/2020,"$296,500","$371,000",https://www.realtytrac.com/property/ca/los-angeles/90061/440-e-lanzit-ave/16675635/,LAR4
34.085357,-118.223401,2612 Jeffries Ave,"Duplex (2 units, any combination)","3 beds, 2 baths","1,616 sqft","6,554 sqft",1922.0,5446011016,1110748574,Los Angeles,JEFFRIES AVE TR,2.0,185320.0,16,LARD2,08/02/1999,,"$755,000",https://www.realtytrac.com/property/ca/los-angeles/90065/2612-jeffries-ave/44890881/,LARD2
34.386142,-118.53301699999999,24811 Railroad Ave,"Store, Retail Outlet ",,"14,971 sqft",1.01 acres,1964.0,2855013044,1110748673,Los Angeles,5844,3.0,920336.0,91,SCCC,09/16/2020,"$2,000,000",,https://www.realtytrac.com/property/ca/newhall/91321/24811-railroad-ave/142773308/,SCCC
34.072198,-118.039791,3503 Lexington Ave,Store/Office (mixed use),,999 sqft,"7,196 sqft",1909.0,8579003019,1110749214,Los Angeles,77,2.0,432700.0,24,EMC2*,05/27/1966,,,https://www.realtytrac.com/property/ca/el-monte/91731/3503-lexington-ave/154982863/,EMC2*
34.666467,-118.07453799999999,3068 Justin Ct,Single Family Residence,"3 beds, 2 baths","2,209 sqft","7,000 sqft",2010.0,3170064079,1110749978,Los Angeles,49864-06,2.0,900504.0,276,LRA22*,09/16/2020,"$368,000","$369,000",https://www.realtytrac.com/property/ca/lancaster/93535/3068-justin-ct/150699222/,LRA22*
34.104572,-118.24418600000001,3026 N North Coolidge Ave,Single Family Residence,"2 beds, 4 baths","1,678 sqft","5,499 sqft",2020.0,5442022038,1110750532,Los Angeles,5485,1.0,187200.0,3,LACM,09/18/2020,"$820,000","$850,000",https://www.realtytrac.com/property/ca/los-angeles/90039/3026-n-north-coolidge-ave/154749189/,LACM
34.082283000000004,-118.182022,4750 Templeton St # 1222,Condominium,"2 beds, 3 baths","1,340 sqft",0.65 acres,1995.0,5213032063,1110753892,Los Angeles,50665,1.0,201401.0,1,LAR3,09/16/2020,"$469,000","$456,000",https://www.realtytrac.com/property/ca/los-angeles/90032/4750-templeton-st-1222/612419/,LAR3
34.105105,-118.313404,1860 N Wilton Pl,"Duplex (2 units, any combination)","6 beds, 2 baths","3,044 sqft","4,913 sqft",1920.0,5544002042,1110722585,Los Angeles,MORGANS HOLLYWOOD TR,2.0,190301.0,28,LARD1.5,09/16/2020,"$1,075,000","$1,343,000",https://www.realtytrac.com/property/ca/los-angeles/90028/1860-n-wilton-pl/148937828/,LARD1.5
34.156609,-118.444993,4719 Tyrone Ave,Single Family Residence,"3 beds, 2 baths","1,754 sqft","8,859 sqft",1955.0,2248002015,1110723353,Los Angeles,8294,3.0,128702.0,16,LAR1,09/16/2020,"$1,222,500","$1,213,000",https://www.realtytrac.com/property/ca/sherman-oaks/91423/4719-tyrone-ave/51954059/,LAR1
34.188728999999995,-118.560529,19608 Hamlin St,Single Family Residence,"3 beds, 2 baths","1,377 sqft","6,616 sqft",1956.0,2132012023,1110723369,Los Angeles,20652,1.0,134901.0,77,LAR1,09/16/2020,"$715,000","$629,000",https://www.realtytrac.com/property/ca/reseda/91335/19608-hamlin-st/45951425/,LAR1
33.939721999999996,-118.029544,10241 Victoria Ave,Single Family Residence,"4 beds, 2 baths","1,676 sqft","7,933 sqft",1950.0,8156019001,1110725154,Los Angeles,15017,1.0,503202.0,22,LCR1*,09/16/2020,"$661,000","$624,000",https://www.realtytrac.com/property/ca/whittier/90604/10241-victoria-ave/154719810/,LCR1*
33.974862,-118.303477,1531 W Florence Ave,"Warehouse, Storage",,"2,490 sqft","3,212 sqft",1980.0,6015034023,1110726496,Los Angeles,4580,3.0,237402.0,288,LAC2,09/16/2020,"$540,000",,https://www.realtytrac.com/property/ca/los-angeles/90047/1531-w-florence-ave/16533009/,LAC2
33.945856,-118.21803100000001,3020 Nebraska Ave,"Duplex (2 units, any combination)","2 beds, 2 baths","1,908 sqft","5,035 sqft",1948.0,6206011012,1110727008,Los Angeles,4753,2.0,535605.0,111,SGCM-R4*,09/16/2020,"$1,775,000","$572,000",https://www.realtytrac.com/property/ca/south-gate/90280/3020-nebraska-ave/54808211/,SGCM-R4*
34.626538000000004,-118.318747,10620 Elizabeth Lake Rd,Single Family Residence,"5 beds, 7 baths","5,624 sqft",9.17 acres,2005.0,3215004023,1110727057,Los Angeles,,1.0,901213.0,,LCA22*,09/16/2020,"$1,050,000",,https://www.realtytrac.com/property/ca/leona-valley/93551/10620-elizabeth-lake-rd/142451441/,LCA22*
34.159766999999995,-118.01154,426 Highland Pl,Single Family Residence,"3 beds, 2 baths","1,282 sqft","6,057 sqft",1930.0,8503017025,1110727063,Los Angeles,8569,3.0,430301.0,15,MORF*,07/18/2006,,"$938,000",https://www.realtytrac.com/property/ca/monrovia/91016/426-highland-pl/154973522/,MORF*
34.555313,-118.08321299999999,2554 Olive Dr # 36,Condominium,"2 beds, 2 baths",853 sqft,1.66 acres,1986.0,3053051419,1110727331,Los Angeles,44050,2.0,910715.0,2,PDRPD15U*,09/16/2020,"$177,000","$180,000",https://www.realtytrac.com/property/ca/palmdale/93550/2554-olive-dr-36/51871790/,PDRPD15U*
34.4808,-117.8097,Vac/vic 183 Ste/ave Z4,Residential - Vacant Land,,,2.27 acres,,3062006042,1110727390,Los Angeles,,2.0,911001.0,10,LCA11*,09/16/2020,"$8,000",,https://www.realtytrac.com/property/ca/mount-waterman/93544/vacvic-183-steave-z4/241230500/,LCA11*
34.169115999999995,-118.62743700000001,5426 Royer Ave,Single Family Residence,"4 beds, 3 baths","3,562 sqft","5,396 sqft",1953.0,2042008047,1110727395,Los Angeles,9545,1.0,137000.0,35,LAR1,09/16/2020,"$952,500","$1,150,000",https://www.realtytrac.com/property/ca/woodland-hills/91367/5426-royer-ave/9785145/,LAR1
34.610614,-118.193063,3525 Parkmeadow Ct,Single Family Residence,"4 beds, 3 baths","3,054 sqft","6,821 sqft",2000.0,3001113026,1110727826,Los Angeles,52848,1.0,910210.0,26,PDSP,09/16/2020,"$605,000","$561,000",https://www.realtytrac.com/property/ca/palmdale/93551/3525-parkmeadow-ct/19689451/,PDSP
34.03414,-118.49508999999999,631 15th St,Single Family Residence,"2 beds, 2 baths","1,715 sqft","7,499 sqft",1939.0,4279026017,1110727887,Los Angeles,5119,5.0,701201.0,18,SMR1*,09/16/2020,"$3,275,000","$2,533,000",https://www.realtytrac.com/property/ca/santa-monica/90402/631-15th-st/154550648/,SMR1*
34.042582,-118.29406200000001,1704 S Catalina St,Single Family Residence,"2 beds, 1 bath",910 sqft,"4,723 sqft",1901.0,5075020030,1110728284,Los Angeles,ROSS & DIXONS TR,2.0,221220.0,75,LARD1.5,09/16/2020,"$725,000","$559,000",https://www.realtytrac.com/property/ca/los-angeles/90006/1704-s-catalina-st/53145675/,LARD1.5
34.262795000000004,-118.30765600000001,10646 Rhodesia Ave,Single Family Residence,"2 beds, 1 bath",840 sqft,"4,480 sqft",1939.0,2556017003,1110728659,Los Angeles,6443,4.0,103102.0,273,LAR1,09/16/2020,"$565,000","$538,000",https://www.realtytrac.com/property/ca/sunland/91040/10646-rhodesia-ave/27073204/,LAR1
33.785712,-118.163027,1468 Junipero Ave,Single Family Residence,"3 beds, 1 bath",883 sqft,"4,571 sqft",1922.0,7260016001,1110729229,Los Angeles,1577,1.0,575102.0,50,LBR2N,09/16/2020,"$470,000","$483,000",https://www.realtytrac.com/property/ca/long-beach/90804/1468-junipero-ave/25976334/,LBR2N
34.264144,-118.46091299999999,15100 Chatsworth St # B,Condominium,"2 beds, 3 baths","1,300 sqft",2.91 acres,1980.0,2649004037,1110729690,Los Angeles,35827,3.0,109604.0,,LARD5,09/16/2020,"$415,000","$362,000",https://www.realtytrac.com/property/ca/mission-hills/91345/15100-chatsworth-st-b/150196004/,LARD5
34.031331,-118.4863,1802 California Ave,Condominium,"2 beds, 3 baths","1,671 sqft","8,007 sqft",1980.0,4276009040,1110729997,Los Angeles,36676,1.0,701501.0,,SMR2*,09/16/2020,"$1,580,000","$1,418,000",https://www.realtytrac.com/property/ca/santa-monica/90403/1802-california-ave/51724025/,SMR2*
34.197179999999996,-118.58511399999999,20728 Hart St,Single Family Residence,"4 beds, 3 baths","1,627 sqft","7,569 sqft",1954.0,2137024002,1110730046,Los Angeles,14756,1.0,134002.0,108,LARS,09/16/2020,"$515,000","$657,000",https://www.realtytrac.com/property/ca/winnetka/91306/20728-hart-st/11310114/,LARS
33.962416,-118.435271,7912 W 79th St,Single Family Residence,"3 beds, 3 baths","2,527 sqft","5,002 sqft",1963.0,4115029019,1110730059,Los Angeles,9809,1.0,276601.0,3,LAR1,09/16/2020,"$1,910,000","$1,875,000",https://www.realtytrac.com/property/ca/playa-del-rey/90293/7912-w-79th-st/154500885/,LAR1
33.855916,-118.143801,5439 Pimenta Ave,Single Family Residence,"2 beds, 1 bath",810 sqft,"5,152 sqft",1950.0,7159017010,1110730549,Los Angeles,14592,1.0,570701.0,377,LKR1YY,09/16/2020,"$615,000","$592,000",https://www.realtytrac.com/property/ca/lakewood/90712/5439-pimenta-ave/52972955/,LKR1YY
34.611034000000004,-118.185088,40106 Castana Ln,Single Family Residence,"3 beds, 2 baths","2,019 sqft","7,715 sqft",1991.0,3001074023,1110731287,Los Angeles,46784,1.0,910210.0,58,LCA210-A22*,09/16/2020,"$465,000","$448,000",https://www.realtytrac.com/property/ca/palmdale/93551/40106-castana-ln/45851651/,LCA210-A22*
34.046803000000004,-118.350104,1445 S Redondo Blvd,Single Family Residence,"3 beds, 2 baths","1,437 sqft","6,359 sqft",1925.0,5070015038,1110732332,Los Angeles,1740,2.0,217100.0,37,LARD1.5,09/16/2020,"$950,000","$998,000",https://www.realtytrac.com/property/ca/los-angeles/90019/1445-s-redondo-blvd/19925313/,LARD1.5
34.192614,-118.36254699999999,6716 Clybourn Ave # 122,Condominium,"2 beds, 1 bath",903 sqft,5.65 acres,1982.0,2412031106,1110733607,Los Angeles,37718,1.0,123103.0,2,LARD1.5,09/16/2020,"$413,000","$320,000",https://www.realtytrac.com/property/ca/north-hollywood/91606/6716-clybourn-ave-122/43993710/,LARD1.5
33.987773,-118.29601799999999,1201 W 59th St,Single Family Residence,"3 beds, 1 bath","1,667 sqft","4,922 sqft",1912.0,6003007016,1110734023,Los Angeles,1266,1.0,237201.0,121,LAR2,09/16/2020,"$645,000","$442,000",https://www.realtytrac.com/property/ca/los-angeles/90044/1201-w-59th-st/24491263/,LAR2
33.833614000000004,-118.34388799999999,3305 Onrado St,Single Family Residence,"3 beds, 2 baths","1,333 sqft","5,760 sqft",1955.0,7362005021,1110734477,Los Angeles,18747,3.0,650401.0,143,TORR-LO,09/16/2020,"$835,000","$891,000",https://www.realtytrac.com/property/ca/torrance/90503/3305-onrado-st/27075619/,TORR-LO
33.832941999999996,-118.360141,21517 Ladeene Ave,Single Family Residence,"6 beds, 2 baths","1,560 sqft","5,401 sqft",1956.0,7525019015,1110734503,Los Angeles,21676,2.0,650701.0,369,TORR-LO,09/16/2020,"$1,030,000","$1,040,000",https://www.realtytrac.com/property/ca/torrance/90503/21517-ladeene-ave/154914861/,TORR-LO
34.17727,-118.45886599999999,5851 Saloma Ave,Single Family Residence,"3 beds, 2 baths","1,274 sqft","6,752 sqft",1950.0,2243015023,1110734945,Los Angeles,16379,3.0,128400.0,71,LAR1,09/16/2020,"$775,000","$818,000",https://www.realtytrac.com/property/ca/van-nuys/91411/5851-saloma-ave/22380207/,LAR1
33.949375,-118.202627,9317 San Juan Ave,Single Family Residence,"2 beds, 1 bath",897 sqft,"4,839 sqft",1941.0,6203002030,1110735308,Los Angeles,5280,1.0,535804.0,963,SGR3YY,09/16/2020,"$420,000","$405,000",https://www.realtytrac.com/property/ca/south-gate/90280/9317-san-juan-ave/52964368/,SGR3YY
34.030584000000005,-118.307492,2706 S Hobart Blvd,Single Family Residence,"5 beds, 3 baths","2,275 sqft","6,650 sqft",1905.0,5053013002,1110735814,Los Angeles,HALL CHAS VICTOR TR,2.0,222200.0,2,LAR1,09/16/2020,"$750,000","$854,000",https://www.realtytrac.com/property/ca/los-angeles/90018/2706-s-hobart-blvd/154633666/,LAR1
34.072026,-118.306339,158 S Serrano Ave,Single Family Residence,"3 beds, 2 baths","1,875 sqft","8,026 sqft",1908.0,5517012012,1110736597,Los Angeles,HOLMES-WALTON COS WESTMINSTER,2.0,211410.0,12,LAR1,09/16/2020,"$1,150,000","$1,146,000",https://www.realtytrac.com/property/ca/los-angeles/90004/158-s-serrano-ave/44870536/,LAR1
34.092444,-118.28586000000001,1155 N Commonwealth Ave,Single Family Residence,"1 bed, 2 baths",696 sqft,"6,250 sqft",1911.0,5542025025,1110736659,Los Angeles,CITY BOUNDARY TR,2.0,191301.0,24,LAR2,09/16/2020,"$1,039,000","$848,000",https://www.realtytrac.com/property/ca/los-angeles/90029/1155-n-commonwealth-ave/10888310/,LAR2
34.150818,-118.424103,13331 Moorpark St # 126,Condominium,"2 beds, 2 baths","1,346 sqft",1.16 acres,1982.0,2360013031,1110737040,Los Angeles,32058,1.0,141101.0,1,LAR3,09/16/2020,"$560,000","$561,000",https://www.realtytrac.com/property/ca/sherman-oaks/91423/13331-moorpark-st-126/12554310/,LAR3
34.162826,-118.301395,312 Thompson Ave # 105,Condominium,"2 beds, 3 baths","1,138 sqft","7,909 sqft",1989.0,5625006032,1110737080,Los Angeles,46366,1.0,301602.0,1,GLR3YY,09/16/2020,"$572,000","$541,000",https://www.realtytrac.com/property/ca/glendale/91201/312-thompson-ave-105/40316011/,GLR3YY
34.092707,-118.37186399999999,1233 N Flores St # 103,Condominium,"2 beds, 2 baths","1,054 sqft","9,059 sqft",1967.0,5554025154,1110737540,Los Angeles,37594,1.0,700300.0,1,WDR4*,09/16/2020,"$669,000","$689,000",https://www.realtytrac.com/property/ca/west-hollywood/90069/1233-n-flores-st-103/40279080/,WDR4*
34.149402,-118.01393600000002,221 Violet Ave # A,Condominium,"3 beds, 3 baths","1,138 sqft","8,025 sqft",1994.0,8505021050,1110737559,Los Angeles,51206,4.0,431001.0,2,MORH*,09/16/2020,"$565,000","$501,000",https://www.realtytrac.com/property/ca/monrovia/91016/221-violet-ave-a/3074907/,MORH*
34.17099,-118.13796599999999,616 E Ladera St,Single Family Residence,"3 beds, 3 baths","1,632 sqft","5,196 sqft",1989.0,5838037010,1110737966,Los Angeles,THORNTON & MORSE TR,2.0,461501.0,34,PSR6,09/16/2020,"$800,000","$758,000",https://www.realtytrac.com/property/ca/pasadena/91104/616-e-ladera-st/29427127/,PSR6
34.262437,-118.337957,9442 Hillrose St,Single Family Residence,"1 bed, 1 bath",550 sqft,0.63 acres,1947.0,2549014001,1110738462,Los Angeles,5776,2.0,103300.0,29,LARE40,09/16/2020,"$660,000","$607,000",https://www.realtytrac.com/property/ca/sunland/91040/9442-hillrose-st/152911113/,LARE40
34.029521,-117.91661200000001,703 Ashcomb Dr,Single Family Residence,"4 beds, 2 baths","1,181 sqft","6,847 sqft",1957.0,8248031008,1110738892,Los Angeles,20443,3.0,407801.0,31,LCA106,09/16/2020,"$589,000","$580,000",https://www.realtytrac.com/property/ca/la-puente/91744/703-ashcomb-dr/40272996/,LCA106
33.782158,-118.37811,26815 Basswood Ave,Single Family Residence,"3 beds, 2 baths","1,538 sqft","8,401 sqft",1957.0,7578006002,1110739742,Los Angeles,21351,1.0,670411.0,2,RPRS8000*,09/16/2020,"$1,230,000","$1,157,000",https://www.realtytrac.com/property/ca/rancho-palos-verdes/90275/26815-basswood-ave/154578667/,RPRS8000*
33.919344,-118.092394,12209 Longworth Ave,Single Family Residence,"3 beds, 1 bath","1,056 sqft","5,524 sqft",1952.0,8022032011,1110741073,Los Angeles,16362,1.0,550202.0,59,NOR105,09/16/2020,"$465,000","$468,000",https://www.realtytrac.com/property/ca/norwalk/90650/12209-longworth-ave/34814449/,NOR105
34.168623,-118.633132,23225 Mariano St,Single Family Residence,"3 beds, 2 baths","1,436 sqft","11,270 sqft",1955.0,2044002054,1110741498,Los Angeles,9545,1.0,137000.0,78,LARS,09/16/2020,"$875,000","$851,000",https://www.realtytrac.com/property/ca/woodland-hills/91367/23225-mariano-st/19660927/,LARS
34.147791,-118.23794,1238 E Wilson Ave # 205,Condominium,"3 beds, 3 baths","1,295 sqft","8,952 sqft",1991.0,5645028027,1110741520,Los Angeles,48690,1.0,302004.0,1,GLR4YY,09/16/2020,"$585,000","$542,000",https://www.realtytrac.com/property/ca/glendale/91206/1238-e-wilson-ave-205/43950427/,GLR4YY
33.838778000000005,-118.109104,4439 Conquista Ave,Single Family Residence,"4 beds, 2 baths","1,620 sqft","5,200 sqft",1950.0,7177016008,1110741557,Los Angeles,16394,1.0,571102.0,66,LKR1YY,09/16/2020,"$765,000","$726,000",https://www.realtytrac.com/property/ca/lakewood/90713/4439-conquista-ave/972698/,LKR1YY
34.24143,-118.48883799999999,16341 Vincennes St,Single Family Residence,"4 beds, 2 baths","1,344 sqft","7,751 sqft",1956.0,2676009008,1110741570,Los Angeles,21854,2.0,117301.0,8,LARS,09/16/2020,"$610,000","$641,000",https://www.realtytrac.com/property/ca/north-hills/91343/16341-vincennes-st/20019176/,LARS
34.048768,-118.38927199999999,1724 S Canfield Ave,Single Family Residence,"4 beds, 3 baths","1,844 sqft","5,994 sqft",1932.0,4305024008,1110741600,Los Angeles,6659,1.0,217001.0,9,LAR1,09/16/2020,"$2,319,000","$1,940,000",https://www.realtytrac.com/property/ca/los-angeles/90035/1724-s-canfield-ave/45829258/,LAR1
34.155634,-118.10133700000002,2385 Monte Vista St,Single Family Residence,"3 beds, 2 baths","2,084 sqft","8,400 sqft",1942.0,5744017009,1110742414,Los Angeles,11200,1.0,462800.0,24,PSR6,09/16/2020,"$1,199,000","$835,000",https://www.realtytrac.com/property/ca/pasadena/91107/2385-monte-vista-st/19662619/,PSR6
33.868699,-118.378731,1902 Grant Ave # 2,Condominium,"3 beds, 3 baths","1,471 sqft","7,526 sqft",1977.0,4156019048,1110745547,Los Angeles,REDONDO VILLA TR,2.0,620701.0,,RBR4*,09/16/2020,"$860,000","$817,000",https://www.realtytrac.com/property/ca/redondo-beach/90278/1902-grant-ave-2/154510939/,RBR4*
33.986422,-118.352779,4427 W 59th Pl,Single Family Residence,"2 beds, 2 baths","1,528 sqft","6,431 sqft",1947.0,4019010006,1110745933,Los Angeles,9344,6.0,703100.0,133,LCR1YY,09/16/2020,"$950,000","$1,065,000",https://www.realtytrac.com/property/ca/windsor-hills/90043/4427-w-59th-pl/45976541/,LCR1YY
34.158821,-118.35323799999999,4835 Forman Ave,Single Family Residence,"3 beds, 2 baths","1,513 sqft","5,628 sqft",1940.0,2420016021,1110748153,Los Angeles,9622,2.0,125600.0,27,LAR1,09/16/2020,"$1,225,000","$1,071,000",https://www.realtytrac.com/property/ca/north-hollywood/91601/4835-forman-ave/154422136/,LAR1
34.015324,-117.98875600000001,1322 Silver Maple Dr,Single Family Residence,"4 beds, 3 baths","2,727 sqft","13,841 sqft",1986.0,8220012036,1110751095,Los Angeles,1953,1.0,408402.0,59,LCRA1L,09/16/2020,"$835,000","$792,000",https://www.realtytrac.com/property/ca/hacienda-heights/91745/1322-silver-maple-dr/48915722/,LCRA1L
33.944212,-118.043227,13509 Close St,Single Family Residence,"3 beds, 2 baths","2,090 sqft","6,826 sqft",1953.0,8158026013,1110751162,Los Angeles,17178,2.0,502901.0,44,LCRA06,09/17/2020,"$530,000","$643,000",https://www.realtytrac.com/property/ca/whittier/90605/13509-close-st/154943686/,LCRA06
34.058921999999995,-118.43796499999999,10762 Ashton Ave,Single Family Residence,"3 beds, 2 baths","1,947 sqft","6,506 sqft",1929.0,4325003003,1110751201,Los Angeles,7803,2.0,265602.0,3,LAR1,,,"$2,077,000",https://www.realtytrac.com/property/ca/los-angeles/90024/10762-ashton-ave/154577902/,LAR1
34.444965,-118.473964,19315 Opal Ln,Condominium,"3 beds, 3 baths","1,710 sqft",2.67 acres,2005.0,2812082065,1110752078,Los Angeles,46018-04,1.0,920028.0,2,LCA21*,09/16/2020,"$487,500","$472,000",https://www.realtytrac.com/property/ca/santa-clarita/91350/19315-opal-ln/40240046/,LCA21*
34.256304,-118.289433,7225 Apperson St # 106,Condominium,"3 beds, 3 baths","1,360 sqft",0.68 acres,2007.0,2565009107,1110753442,Los Angeles,60362,1.0,101110.0,1,LARD2,09/16/2020,"$450,000","$514,000",https://www.realtytrac.com/property/ca/tujunga/91042/7225-apperson-st-106/146051846/,LARD2
34.247976,-118.287573,7144 Foothill Blvd,MISCELLANEOUS   (Commercial),,"2,779 sqft","2,686 sqft",1940.0,2564001005,1110754247,Los Angeles,9944,3.0,101400.0,23,LAC2,09/16/2020,"$700,000",,https://www.realtytrac.com/property/ca/tujunga/91042/7144-foothill-blvd/49166509/,LAC2
34.094842,-117.735078,2720 Crimson Way,Condominium,"3 beds, 4 baths","1,070 sqft",0.57 acres,2017.0,8313028040,1110722482,Los Angeles,,3.0,401704.0,1,POM*,09/16/2020,"$413,000","$429,000",https://www.realtytrac.com/property/ca/pomona/91767/2720-crimson-way/323429043/,POM*
34.166937,-118.59638799999999,21317 Costanso St,Apartment house (5+ units),"7 beds, 6 baths","4,309 sqft","6,251 sqft",1961.0,2167002034,1110723228,Los Angeles,6170,1.0,137502.0,2304,LAR2,09/16/2020,"$1,350,000","$816,000",https://www.realtytrac.com/property/ca/woodland-hills/91364/21317-costanso-st/154391965/,LAR2
33.920302,-118.27595,159 W 124th St,Single Family Residence,"4 beds, 1 bath","1,314 sqft","5,910 sqft",1948.0,6132031007,1110723603,Los Angeles,14076,3.0,540901.0,36,LCR1*,09/16/2020,"$425,000","$517,000",https://www.realtytrac.com/property/ca/los-angeles/90061/159-w-124th-st/142479300/,LCR1*
33.921313,-118.199657,3861 Fernwood Ave,Single Family Residence,"2 beds, 2 baths",892 sqft,"3,558 sqft",1947.0,6187026001,1110723646,Los Angeles,10503,2.0,540102.0,129,LYR1YY,09/16/2020,"$485,000","$434,000",https://www.realtytrac.com/property/ca/lynwood/90262/3861-fernwood-ave/25979849/,LYR1YY
33.822803,-118.30771100000001,1637 Plaza Del Amo,"Duplex (2 units, any combination)","2 beds, 2 baths","1,576 sqft","5,006 sqft",1958.0,7347008025,1110723664,Los Angeles,4529,2.0,293202.0,347,LARD2,09/16/2020,"$880,000","$696,000",https://www.realtytrac.com/property/ca/torrance/90501/1637-plaza-del-amo/24838719/,LARD2
34.131859000000006,-118.356458,3856 Broadlawn Dr,Single Family Residence,"3 beds, 2 baths","1,889 sqft","7,427 sqft",1926.0,2425023009,1110723673,Los Angeles,7530,1.0,143700.0,9,LAR1,09/16/2020,"$1,500,000","$1,433,000",https://www.realtytrac.com/property/ca/los-angeles/90068/3856-broadlawn-dr/1264256/,LAR1
34.166897999999996,-118.40988300000001,12715 Weddington St,Single Family Residence,"3 beds, 3 baths","1,976 sqft","8,355 sqft",1953.0,2346021006,1110723973,Los Angeles,1000,1.0,124000.0,134,LAR1,09/16/2020,"$1,196,500","$1,010,000",https://www.realtytrac.com/property/ca/north-hollywood/91607/12715-weddington-st/154412858/,LAR1
34.008971,-118.08713,4620 Pra Dr,Single Family Residence,"4 beds, 2 baths","1,546 sqft","6,538 sqft",1973.0,6373016012,1110724587,Los Angeles,30515,5.0,500600.0,4,PRSF*,08/23/2002,"$265,000","$609,000",https://www.realtytrac.com/property/ca/pico-rivera/90660/4620-pra-dr/24169609/,PRSF*
34.125619,-118.102483,2495 Coniston Pl,Single Family Residence,"3 beds, 4 baths","3,106 sqft","8,679 sqft",1931.0,5331025001,1110724957,Los Angeles,7758,6.0,464200.0,181,SOR112000*,09/16/2020,"$2,180,000","$2,231,000",https://www.realtytrac.com/property/ca/san-marino/91108/2495-coniston-pl/43880316/,SOR112000*
33.999970000000005,-118.387047,10630 Flaxton St,Single Family Residence,"3 beds, 2 baths","1,918 sqft","9,176 sqft",1954.0,4203007055,1110725012,Los Angeles,18215,1.0,702600.0,16,CCR1AY,09/16/2020,"$1,500,000","$1,610,000",https://www.realtytrac.com/property/ca/culver-city/90230/10630-flaxton-st/154522930/,CCR1AY
34.04985,-118.41379599999999,2340 Fox Hills Dr # 305,Condominium,"3 beds, 3 baths","1,802 sqft","17,552 sqft",2003.0,4315015141,1110725043,Los Angeles,53793,3.0,267902.0,1,LAR3,09/16/2020,"$4,500,000","$1,127,000",https://www.realtytrac.com/property/ca/los-angeles/90064/2340-fox-hills-dr-305/40252861/,LAR3
34.053353,-118.42726699999999,1838 Westholme Ave # 203,Condominium,"3 beds, 3 baths","1,646 sqft","14,654 sqft",2004.0,4317004107,1110725351,Los Angeles,26534,1.0,267100.0,1,LAR3,09/16/2020,"$1,110,000","$1,148,000",https://www.realtytrac.com/property/ca/los-angeles/90025/1838-westholme-ave-203/40224491/,LAR3
34.048508,-118.05045,1709 Strozier Ave,Single Family Residence,"3 beds, 1 bath",958 sqft,"6,691 sqft",1954.0,8116002002,1110725371,Los Angeles,19762,1.0,433700.0,2,SER1*,09/16/2020,"$530,000","$505,000",https://www.realtytrac.com/property/ca/el-monte/91733/1709-strozier-ave/18010728/,SER1*
34.685629999999996,-118.179483,2701 W Avenue J4,Single Family Residence,"3 beds, 2 baths","1,927 sqft","9,305 sqft",1973.0,3124005013,1110726278,Los Angeles,30249,3.0,901009.0,28,LRRA7000*,09/16/2020,"$440,000","$379,000",https://www.realtytrac.com/property/ca/lancaster/93536/2701-w-avenue-j4/43987737/,LRRA7000*
34.099429,-118.259979,2374 Edgewater Ter,Single Family Residence,"3 beds, 2 baths","1,486 sqft","3,569 sqft",1931.0,5439006031,1110726368,Los Angeles,4140,1.0,195100.0,19,LAR1,09/16/2020,"$1,585,000","$1,468,000",https://www.realtytrac.com/property/ca/los-angeles/90039/2374-edgewater-ter/14218581/,LAR1
34.04234,-118.526953,682 Swarthmore Ave,Single Family Residence,"3 beds, 2 baths","1,301 sqft","2,971 sqft",1949.0,4412010007,1110726388,Los Angeles,9300,3.0,262706.0,7,LAR1,09/16/2020,"$2,097,000","$1,712,000",https://www.realtytrac.com/property/ca/pacific-palisades/90272/682-swarthmore-ave/52006299/,LAR1
34.1036,-117.8149,302 S San Dimas Ave,Store/Office (mixed use),,"2,506 sqft",0.57 acres,2016.0,8390019058,1110726681,Los Angeles,,3.0,401311.0,1,SDCCG*,09/16/2020,"$789,000",,https://www.realtytrac.com/property/ca/san-dimas/91773/302-s-san-dimas-ave/323429834/,SDCCG*
34.038879,-118.003693,823 Workman Mill Rd,Single Family Residence,"6 beds, 2 baths","2,392 sqft","9,303 sqft",1966.0,8115018008,1110726826,Los Angeles,25619,1.0,408302.0,8,LCR172,09/16/2020,"$820,000","$683,000",https://www.realtytrac.com/property/ca/whittier/90601/823-workman-mill-rd/154938878/,LCR172
34.143962,-118.38039599999999,4149 Kraft Ave,Single Family Residence,"3 beds, 2 baths","1,888 sqft","6,881 sqft",1939.0,2368021001,1110726884,Los Angeles,9845,1.0,143602.0,11,LAR1,09/16/2020,"$1,613,000","$1,261,000",https://www.realtytrac.com/property/ca/studio-city/91604/4149-kraft-ave/141274974/,LAR1
34.099129,-118.182631,4589 Via Marisol # 267,Condominium,"2 beds, 2 baths","1,038 sqft",5.11 acres,1981.0,5301018151,1110727142,Los Angeles,27847,2.0,201302.0,8,LARD5,09/16/2020,"$465,000","$477,000",https://www.realtytrac.com/property/ca/los-angeles/90042/4589-via-marisol-267/13614616/,LARD5
34.157329,-118.372798,11110 Camarillo St # 104,Condominium,"2 beds, 3 baths",980 sqft,0.51 acres,1989.0,2353026036,1110727698,Los Angeles,47107,1.0,125402.0,1,LAR3,09/16/2020,"$550,000","$548,000",https://www.realtytrac.com/property/ca/north-hollywood/91602/11110-camarillo-st-104/43835539/,LAR3
34.109419,-118.302851,5158 Los Adornos Way,Single Family Residence,"4 beds, 4 baths","2,808 sqft","11,003 sqft",1963.0,5588035038,1110728208,Los Angeles,27460,2.0,189300.0,79,LARE11,09/16/2020,"$2,450,000","$2,654,000",https://www.realtytrac.com/property/ca/los-angeles/90027/5158-los-adornos-way/154776554/,LARE11
33.83532,-118.375152,417 Susana Ave,Single Family Residence,"4 beds, 2 baths","1,800 sqft","5,350 sqft",1965.0,7506023050,1110728237,Los Angeles,REDONDO BEACH,1.0,621301.0,76,RBR-1,09/16/2020,"$1,430,000","$1,480,000",https://www.realtytrac.com/property/ca/redondo-beach/90277/417-susana-ave/154702348/,RBR-1
34.157099,-118.070596,3805 Greenhill Rd,Single Family Residence,"3 beds, 2 baths","1,835 sqft","19,591 sqft",1954.0,5757011031,1110728453,Los Angeles,12501,1.0,463000.0,39,PSR6,09/16/2020,"$1,420,000","$1,185,000",https://www.realtytrac.com/property/ca/pasadena/91107/3805-greenhill-rd/154799835/,PSR6
34.092494,-118.23400500000001,2416 Glover Pl,"Triplex (3 units, any combination)","5 beds, 3 baths","1,776 sqft","4,597 sqft",1925.0,5445005019,1110728533,Los Angeles,5872,3.0,197200.0,108,LAR1,09/16/2020,"$840,000","$836,000",https://www.realtytrac.com/property/ca/los-angeles/90031/2416-glover-pl/7632539/,LAR1
33.817268,-118.33444899999999,23108 Greenwood Ave,Single Family Residence,"4 beds, 2 baths","1,763 sqft","6,220 sqft",1965.0,7379011007,1110728551,Los Angeles,28230,1.0,651101.0,115,TORR-LO,09/16/2020,"$1,195,000","$1,159,000",https://www.realtytrac.com/property/ca/torrance/90505/23108-greenwood-ave/154896987/,TORR-LO
34.030071,-118.81379299999999,5721 Bonsall Dr,Single Family Residence,"5 beds, 5 baths","5,497 sqft",7.39 acres,1989.0,4467024011,1110728614,Los Angeles,CITY/MALIBU,3.0,800408.0,16,LCRPD14U-RA1*,09/16/2020,"$9,925,000","$1,042,000",https://www.realtytrac.com/property/ca/malibu/90265/5721-bonsall-dr/51760352/,LCRPD14U-RA1*
33.894252,-118.155731,15316 Georgia Ave,"Duplex (2 units, any combination)","3 beds, 3 baths","1,966 sqft","8,021 sqft",1957.0,6270008004,1110728617,Los Angeles,CLEAR WATER,3.0,553901.0,2,PAR2*,09/16/2020,"$650,000","$606,000",https://www.realtytrac.com/property/ca/paramount/90723/15316-georgia-ave/154837429/,PAR2*
33.911996,-118.170573,7412 Howery St,Single Family Residence,"3 beds, 2 baths","1,366 sqft","6,858 sqft",1953.0,6236021016,1110728901,Los Angeles,15909,5.0,536200.0,16,SGR1*,09/16/2020,"$565,000","$545,000",https://www.realtytrac.com/property/ca/south-gate/90280/7412-howery-st/154834361/,SGR1*
34.277581,-118.599524,21461 Arapahoe Trl,Single Family Residence,"3 beds, 3 baths","1,300 sqft","2,633 sqft",1991.0,2818029010,1110729029,Los Angeles,,1.0,920303.0,117,LCR16000*,09/16/2020,"$515,000","$530,000",https://www.realtytrac.com/property/ca/chatsworth/91311/21461-arapahoe-trl/21835590/,LCR16000*
34.549688,-117.94828999999999,10130 E Avenue S8,Single Family Residence,"4 beds, 2 baths","1,508 sqft",0.91 acres,1986.0,3044022003,1110729262,Los Angeles,9107,1.0,910002.0,359,LCA110000*,09/16/2020,"$250,000","$369,000",https://www.realtytrac.com/property/ca/littlerock/93543/10130-e-avenue-s8/25221283/,LCA110000*
33.851167,-118.109384,5118 Carfax Ave,Single Family Residence,"3 beds, 2 baths","1,637 sqft","5,296 sqft",1954.0,7174037016,1110729302,Los Angeles,19607,5.0,570901.0,46,LKR1YY,09/16/2020,"$670,000","$683,000",https://www.realtytrac.com/property/ca/lakewood/90713/5118-carfax-ave/148727098/,LKR1YY
34.67005,-118.16183899999999,43317 17th St W,Single Family Residence,"3 beds, 1 bath","1,126 sqft","20,292 sqft",1953.0,3125007017,1110729484,Los Angeles,14728,2.0,900705.0,140,LRRA7000*,09/15/2020,"$290,000","$261,000",https://www.realtytrac.com/property/ca/lancaster/93534/43317-17th-st-w/154473843/,LRRA7000*
34.46663,-118.405507,15559 Sierra Hwy,MISCELLANEOUS   (Commercial),"2 beds, 1 bath",912 sqft,3.56 acres,1923.0,2853002002,1110729542,Los Angeles,,1.0,920026.0,1,LCC3*,09/16/2020,"$375,000",,https://www.realtytrac.com/property/ca/canyon-country/91390/15559-sierra-hwy/154464045/,LCC3*
34.174184999999994,-118.53238400000001,18332 Collins St,Condominium,"2 beds, 3 baths","1,512 sqft",4.53 acres,1975.0,2157006048,1110729561,Los Angeles,31305,2.0,139303.0,,LAR3,09/16/2020,"$520,000","$463,000",https://www.realtytrac.com/property/ca/tarzana/91356/18332-collins-st/14218424/,LAR3
33.989275,-118.41686000000001,12313 Allin St,Single Family Residence,"3 beds, 2 baths","1,450 sqft","4,880 sqft",1948.0,4221019015,1110729763,Los Angeles,7428,3.0,275500.0,67,LAR1,09/16/2020,"$1,100,000","$1,021,000",https://www.realtytrac.com/property/ca/culver-city/90230/12313-allin-st/154529395/,LAR1
34.165778,-118.131394,1155 N Mentor Ave,Single Family Residence,"2 beds, 2 baths","1,222 sqft","8,805 sqft",1920.0,5740014022,1110729782,Los Angeles,WASHINGTON SQUARE,4.0,462400.0,23,PSR6,09/16/2020,"$900,000","$857,000",https://www.realtytrac.com/property/ca/pasadena/91104/1155-n-mentor-ave/23745849/,PSR6
34.413734000000005,-118.549298,23625 Del Monte Dr # 314,Condominium,"2 beds, 2 baths","1,067 sqft",5.61 acres,1987.0,2861050075,1110730810,Los Angeles,43165,1.0,920329.0,1,SCUR4,09/16/2020,"$411,000","$543,000",https://www.realtytrac.com/property/ca/santa-clarita/91355/23625-del-monte-dr-314/30374739/,SCUR4
33.899751,-118.239795,516 N Kemp Ave,Single Family Residence,"3 beds, 2 baths","1,124 sqft","8,666 sqft",1955.0,6156010032,1110731045,Los Angeles,5627,4.0,542700.0,25,CORM*,09/16/2020,"$485,000","$430,000",https://www.realtytrac.com/property/ca/compton/90220/516-n-kemp-ave/209000481/,CORM*
33.941056,-117.999756,10358 Woodstead Ave,Single Family Residence,"3 beds, 3 baths","1,791 sqft","6,567 sqft",1955.0,8230006052,1110731704,Los Angeles,20580,1.0,503402.0,52,WHR16000*,09/16/2020,"$655,000","$625,000",https://www.realtytrac.com/property/ca/whittier/90603/10358-woodstead-ave/17292501/,WHR16000*
34.165888,-118.696083,26102 Alizia Canyon Dr # A,Condominium,"3 beds, 3 baths","1,499 sqft",3.53 acres,1987.0,2052027129,1110731930,Los Angeles,33535,2.0,800203.0,4,LCR2*,09/16/2020,"$615,500","$542,000",https://www.realtytrac.com/property/ca/calabasas/91302/26102-alizia-canyon-dr-a/154378776/,LCR2*
34.539176,-117.81981699999999,36220 173rd St E,Single Family Residence,"3 beds, 2 baths","1,320 sqft",2.49 acres,1993.0,3080012028,1110732554,Los Angeles,,2.0,911001.0,116,LCA11*,09/16/2020,"$100,000",,https://www.realtytrac.com/property/ca/llano/93544/36220-173rd-st-e/154471953/,LCA11*
34.256581,-118.550427,10234 Candleberry Ln,Single Family Residence,"5 beds, 5 baths","5,803 sqft","17,998 sqft",1989.0,2729027038,1110733247,Los Angeles,43424,1.0,111204.0,17,LARA,09/16/2020,"$1,425,000","$1,391,000",https://www.realtytrac.com/property/ca/northridge/91324/10234-candleberry-ln/3188276/,LARA
34.111462,-118.376695,2211 Stanley Hills Dr,Single Family Residence,"3 beds, 4 baths","1,915 sqft","7,662 sqft",1945.0,5567003014,1110733484,Los Angeles,BUNGALOW LAND,1.0,194200.0,230,LAR1,09/16/2020,"$980,000","$860,000",https://www.realtytrac.com/property/ca/los-angeles/90046/2211-stanley-hills-dr/8651466/,LAR1
33.967538,-118.285898,712 W 79th St,"Duplex (2 units, any combination)","3 beds, 2 baths","1,861 sqft","7,687 sqft",1921.0,6032027022,1110733499,Los Angeles,FIGUEROA BLVD,2.0,238310.0,357,LARD1.5,09/16/2020,"$300,000","$596,000",https://www.realtytrac.com/property/ca/los-angeles/90044/712-w-79th-st/26250955/,LARD1.5
33.945828000000006,-118.21776899999999,3024 Nebraska Ave,MISCELLANEOUS   (Commercial),"3 beds, 6 baths","2,717 sqft","5,044 sqft",1952.0,6206011010,1110734181,Los Angeles,4753,2.0,535605.0,110,SGCM-R4*,09/16/2020,"$1,775,000",,https://www.realtytrac.com/property/ca/south-gate/90280/3024-nebraska-ave/154830730/,SGCM-R4*
34.138964,-118.097222,410 Virginia Ave,Single Family Residence,"3 beds, 2 baths","1,694 sqft","8,028 sqft",1927.0,5748033026,1110734201,Los Angeles,6362,1.0,463300.0,1,LCR105,09/16/2020,"$918,000","$965,000",https://www.realtytrac.com/property/ca/pasadena/91107/410-virginia-ave/154798508/,LCR105
34.142761,-118.009925,821 S Mayflower Ave,Single Family Residence,"3 beds, 2 baths","1,273 sqft","3,960 sqft",1924.0,8506017014,1110734331,Los Angeles,7898,2.0,430901.0,68,MORM*,09/16/2020,"$780,000","$757,000",https://www.realtytrac.com/property/ca/monrovia/91016/821-s-mayflower-ave/154974166/,MORM*
34.167709,-118.519405,5305 White Oak Ave,Condominium,"3 beds, 3 baths","2,075 sqft",5.05 acres,1973.0,2162014030,1110734347,Los Angeles,29407,1.0,139504.0,,LAR3,09/16/2020,"$740,000","$1,203,000",https://www.realtytrac.com/property/ca/encino/91316/5305-white-oak-ave/154391383/,LAR3
34.061523,-117.75800600000001,543 W Center St,Residential - Vacant Land,,,"6,824 sqft",,8340027027,1110734351,Los Angeles,W J KESSLERS SUB,1.0,408800.0,10,POT3*,09/16/2020,"$170,000","$372,000",https://www.realtytrac.com/property/ca/pomona/91768/543-w-center-st/154960862/,POT3*
33.835782,-118.161404,4267 Nelsonbark Ave,Single Family Residence,"3 beds, 2 baths","1,301 sqft","6,279 sqft",1955.0,7151011002,1110734536,Los Angeles,19904,4.0,571400.0,303,LKR1*,09/16/2020,"$730,000","$611,000",https://www.realtytrac.com/property/ca/lakewood/90712/4267-nelsonbark-ave/154864665/,LKR1*
33.862881,-118.36138400000002,2619 185th St,Single Family Residence,"3 beds, 1 bath","1,171 sqft","5,919 sqft",1952.0,4158027010,1110734858,Los Angeles,15444,2.0,620602.0,30,RBR-1,09/16/2020,"$825,000","$833,000",https://www.realtytrac.com/property/ca/redondo-beach/90278/2619-185th-st/30139562/,RBR-1
33.832305,-118.32901100000001,1621 Crenshaw Blvd,Single Family Residence,"2 beds, 1 bath",516 sqft,"7,050 sqft",1924.0,7362033045,1110734867,Los Angeles,5925,4.0,650401.0,4,TOCC-GEN,09/16/2020,"$555,000","$556,000",https://www.realtytrac.com/property/ca/torrance/90501/1621-crenshaw-blvd/154694983/,TOCC-GEN
33.836223,-118.09700900000001,4346 Quigley Ave,Single Family Residence,"3 beds, 1 bath","1,069 sqft","5,152 sqft",1953.0,7063004009,1110735191,Los Angeles,17830,2.0,571000.0,322,LKR1YY,09/16/2020,"$600,000","$627,000",https://www.realtytrac.com/property/ca/lakewood/90713/4346-quigley-ave/154857663/,LKR1YY
33.745925,-118.29853899999999,984 W Sepulveda St,Single Family Residence,"2 beds, 1 bath",975 sqft,"6,000 sqft",1918.0,7447009003,1110735232,Los Angeles,2085,2.0,296500.0,2,LARD1.5,09/16/2020,"$637,500","$556,000",https://www.realtytrac.com/property/ca/san-pedro/90731/984-w-sepulveda-st/141107723/,LARD1.5
34.09235,-118.24965800000001,2220 Vestal Ave,"Duplex (2 units, any combination)","4 beds, 2 baths","1,768 sqft","6,681 sqft",1959.0,5443010014,1110735563,Los Angeles,ELYSIAN TERRACE,3.0,197410.0,11,LAR2,09/16/2020,"$1,437,500","$1,307,000",https://www.realtytrac.com/property/ca/los-angeles/90026/2220-vestal-ave/1491930/,LAR2
34.153925,-118.505091,4601 Balboa Ave,Single Family Residence,"6 beds, 7 baths","10,640 sqft",1.52 acres,1939.0,2289014032,1110735671,Los Angeles,2955,3.0,139701.0,10,LARA,09/16/2020,"$3,900,000","$2,364,000",https://www.realtytrac.com/property/ca/encino/91316/4601-balboa-ave/154406575/,LARA
34.541928999999996,-117.98526899999999,8123 E Avenue T,Residential - Vacant Land,,,0.94 acres,,3051007004,1110735923,Los Angeles,,1.0,910002.0,1,LCA2,09/16/2020,"$325,000",,https://www.realtytrac.com/property/ca/littlerock/93543/8123-e-avenue-t/223540199/,LCA2
34.570454999999995,-118.10882,37849 Palm Vista Ave,Single Family Residence,"3 beds, 1 bath","1,089 sqft","6,838 sqft",1954.0,3012006022,1110736396,Los Angeles,18458,3.0,910504.0,78,PDR1*,09/16/2020,"$274,000","$205,000",https://www.realtytrac.com/property/ca/palmdale/93550/37849-palm-vista-ave/293338/,PDR1*
34.47906,-118.534557,29131 Starwood Pl,Single Family Residence,"4 beds, 4 baths","3,436 sqft","6,179 sqft",2003.0,3244135027,1110736411,Los Angeles,46564-05,1.0,920015.0,27,SCUR2,09/16/2020,"$880,000","$950,000",https://www.realtytrac.com/property/ca/santa-clarita/91390/29131-starwood-pl/24837121/,SCUR2
34.6881,-118.0618,Vac/70 Ste/vic Avenue K8,MISCELLANEOUS   (Vacant Land)     ,,,19.85 acres,,3386012023,1110736528,Los Angeles,,1.0,900201.0,25,LCA21*,09/16/2020,"$65,000",,https://www.realtytrac.com/property/ca/roosevelt-corner/93535/vac70-stevic-avenue-k8/241290970/,LCA21*
33.876239,-118.306821,17009 S Harvard Blvd,Single Family Residence,"3 beds, 1 bath","1,320 sqft","5,088 sqft",1953.0,6106008009,1110736820,Los Angeles,17475,2.0,603302.0,54,GAR2,09/16/2020,"$705,000","$542,000",https://www.realtytrac.com/property/ca/gardena/90247/17009-s-harvard-blvd/154659760/,GAR2
34.150721999999995,-118.138028,286 N Madison Ave # 403,Condominium,"1 bed, 2 baths","1,071 sqft",0.79 acres,2003.0,5723007078,1110736982,Los Angeles,53278,2.0,462202.0,1,PSR*,09/16/2020,"$638,000","$606,000",https://www.realtytrac.com/property/ca/pasadena/91101/286-n-madison-ave-403/43698732/,PSR*
34.680135,-118.172127,2302 Forry St,Single Family Residence,"4 beds, 2 baths","1,403 sqft","7,494 sqft",1982.0,3129023032,1110737447,Los Angeles,37510,1.0,901009.0,46,LRRA7000*,09/16/2020,"$335,000","$328,000",https://www.realtytrac.com/property/ca/lancaster/93536/2302-forry-st/43766237/,LRRA7000*
34.153573,-117.99013400000001,712 Valley View Ave,"Duplex (2 units, any combination)","4 beds, 2 baths","1,704 sqft","10,002 sqft",1952.0,8518041008,1110737646,Los Angeles,OAK PARK TR,4.0,430301.0,18,MORM*,09/16/2020,"$940,000","$939,000",https://www.realtytrac.com/property/ca/monrovia/91016/712-valley-view-ave/46079271/,MORM*
34.043857,-118.302332,2065 Venice Blvd,"Store, Retail Outlet ",,"5,530 sqft","6,601 sqft",1947.0,5075013015,1110738155,Los Angeles,5954,2.0,221210.0,1,LAC1,09/16/2020,"$2,500,000",,https://www.realtytrac.com/property/ca/los-angeles/90006/2065-venice-blvd/46016110/,LAC1
34.150785,-118.411546,12801 Moorpark St # 214,Condominium,"2 beds, 2 baths","1,023 sqft",0.93 acres,1971.0,2362014084,1110738280,Los Angeles,32504,2.0,143400.0,,LAR3,09/16/2020,"$480,000","$472,000",https://www.realtytrac.com/property/ca/studio-city/91604/12801-moorpark-st-214/194373/,LAR3
34.257048,-118.47548700000002,15744 Devonshire St,Condominium,"3 beds, 3 baths","1,485 sqft",0.82 acres,1993.0,2661016033,1110738506,Los Angeles,50821,2.0,109800.0,1,LACR,09/16/2020,"$499,000","$483,000",https://www.realtytrac.com/property/ca/granada-hills/91344/15744-devonshire-st/3009326/,LACR
34.030414,-117.86980700000001,953 N Hunters Hill Dr,Single Family Residence,"3 beds, 3 baths","2,635 sqft","20,228 sqft",1986.0,8709072034,1110738763,Los Angeles,41045,1.0,403407.0,5,WARPD370001.0,09/16/2020,"$1,227,000","$1,091,000",https://www.realtytrac.com/property/ca/walnut/91789/953-n-hunters-hill-dr/100029741/,WARPD370001.0
33.899183,-118.20052199999999,2100 E San Vincente St,Single Family Residence,"3 beds, 2 baths","1,510 sqft","9,212 sqft",1952.0,6183015018,1110739084,Los Angeles,12039,1.0,542105.0,30,CORL*,09/16/2020,"$531,000","$491,000",https://www.realtytrac.com/property/ca/compton/90221/2100-e-san-vincente-st/51983332/,CORL*
34.095196,-118.18399,604 Vallejo Villas # 3,Condominium,"3 beds, 3 baths","1,679 sqft",13.67 acres,1981.0,5302010073,1110739091,Los Angeles,35194,1.0,201302.0,17,LARD5,09/16/2020,"$713,000","$566,000",https://www.realtytrac.com/property/ca/los-angeles/90042/604-vallejo-villas-3/154699347/,LARD5
34.176576000000004,-118.077619,1647 Hastings Heights Ln,Single Family Residence,"6 beds, 7 baths","5,081 sqft",0.59 acres,1986.0,5760032013,1110739467,Los Angeles,30607,3.0,460000.0,15,PSR2,01/23/1990,,"$2,280,000",https://www.realtytrac.com/property/ca/pasadena/91107/1647-hastings-heights-ln/40195789/,PSR2
34.213898,-118.249379,521 Mesa Lila Rd,Single Family Residence,"3 beds, 3 baths","2,305 sqft","14,040 sqft",1956.0,5617016017,1110739531,Los Angeles,15486,4.0,300701.0,4,GLR1RY,09/16/2020,"$1,350,000","$1,220,000",https://www.realtytrac.com/property/ca/glendale/91208/521-mesa-lila-rd/153020601/,GLR1RY
34.124865,-118.432988,2830 Royston Pl,Single Family Residence,"4 beds, 5 baths","3,912 sqft","14,840 sqft",1980.0,4382002015,1110739532,Los Angeles,23290,2.0,261102.0,69,LARE20,09/16/2020,"$4,175,000","$2,737,000",https://www.realtytrac.com/property/ca/beverly-hills/90210/2830-royston-pl/40467542/,LARE20
34.002635,-118.44901999999999,3554 Redwood Ave,Single Family Residence,"3 beds, 14 baths",51 sqft,"4,903 sqft",1939.0,4245002014,1110739568,Los Angeles,7681,4.0,272100.0,107,LAR1,09/16/2020,"$1,688,000","$1,309,000",https://www.realtytrac.com/property/ca/los-angeles/90066/3554-redwood-ave/154536935/,LAR1
34.436715,-118.521474,22023 Alamogordo Rd,Single Family Residence,"3 beds, 2 baths","1,188 sqft","6,441 sqft",1964.0,2808017002,1110739599,Los Angeles,28368,3.0,920017.0,20,SCUR2,09/16/2020,"$610,000","$518,000",https://www.realtytrac.com/property/ca/santa-clarita/91350/22023-alamogordo-rd/15662670/,SCUR2
34.616884000000006,-118.188621,40411 Elderberry Ct,Single Family Residence,"4 beds, 3 baths","2,556 sqft","8,226 sqft",1990.0,3001082002,1110740781,Los Angeles,45071,1.0,910210.0,61,PDRPD-1-12U*,09/16/2020,"$485,000","$461,000",https://www.realtytrac.com/property/ca/palmdale/93551/40411-elderberry-ct/23985824/,PDRPD-1-12U*
34.390663,-118.56186799999999,25825 Tournament Rd # I9,Condominium,"2 beds, 2 baths",760 sqft,1.61 acres,1980.0,2851019025,1110740830,Los Angeles,35768,3.0,920334.0,,SCUR3,09/16/2020,"$286,000","$292,000",https://www.realtytrac.com/property/ca/santa-clarita/91355/25825-tournament-rd-i9/40282475/,SCUR3
34.250721,-118.298456,7584 Mcgroarty Ter,Single Family Residence,"3 beds, 2 baths","2,040 sqft","11,783 sqft",1955.0,2563004035,1110740835,Los Angeles,WESTERN EMPIRE,2.0,101400.0,218,LARE40,09/16/2020,"$913,000","$759,000",https://www.realtytrac.com/property/ca/tujunga/91042/7584-mcgroarty-ter/154438730/,LARE40
34.01915,-118.458176,28 Village Pkwy,Condominium,"2 beds, 3 baths","1,263 sqft",8.53 acres,1974.0,4270013048,1110740929,Los Angeles,31885,5.0,702300.0,,SMR1*,09/16/2020,"$260,000","$913,000",https://www.realtytrac.com/property/ca/santa-monica/90405/28-village-pkwy/14087010/,SMR1*
33.766945,-118.419455,2809 Via Barri,Single Family Residence,"6 beds, 6 baths","5,952 sqft","19,819 sqft",1981.0,7542023015,1110741631,Los Angeles,7144,2.0,670328.0,15,PVR1YY,09/16/2020,"$4,140,000","$1,808,000",https://www.realtytrac.com/property/ca/palos-verdes-estates/90274/2809-via-barri/154918162/,PVR1YY
34.098881,-118.35361699999999,1524 N Sierra Bonita Ave,Single Family Residence,"4 beds, 5 baths","1,758 sqft","6,758 sqft",1916.0,5550010013,1110742119,Los Angeles,SIERRA BONITA TR,2.0,189905.0,35,LAR1,09/16/2020,"$2,475,000","$1,614,000",https://www.realtytrac.com/property/ca/los-angeles/90046/1524-n-sierra-bonita-ave/154771967/,LAR1
34.091905,-118.345924,1140 N Formosa Ave # 9,Condominium,"2 beds, 3 baths","1,560 sqft","13,511 sqft",2008.0,5531009032,1110742250,Los Angeles,62614,1.0,700101.0,1,WDR3C*,09/16/2020,"$1,100,000","$1,113,000",https://www.realtytrac.com/property/ca/west-hollywood/90046/1140-n-formosa-ave-9/141236027/,WDR3C*
33.788395,-118.325623,2403 Esther View Dr,Single Family Residence,"3 beds, 2 baths","1,200 sqft","4,847 sqft",1969.0,7553019042,1110742522,Los Angeles,28367,2.0,670100.0,1,LOA1*,09/16/2020,"$606,000","$611,000",https://www.realtytrac.com/property/ca/lomita/90717/2403-esther-view-dr/154708761/,LOA1*
34.587942,-118.154973,1302 W Avenue P14,Single Family Residence,"3 beds, 2 baths","1,070 sqft","7,967 sqft",1954.0,3003021003,1110742723,Los Angeles,19947,2.0,910208.0,32,LCRA7000*,04/19/1989,,"$254,000",https://www.realtytrac.com/property/ca/palmdale/93551/1302-w-avenue-p14/154468582/,LCRA7000*
34.249065,-118.52118300000001,17735 Kinzie St # 102,Condominium,"3 beds, 2 baths","1,589 sqft",1.64 acres,1995.0,2755001025,1110743533,Los Angeles,51376,2.0,115104.0,1,LARD1.5,09/16/2020,"$490,000","$463,000",https://www.realtytrac.com/property/ca/northridge/91325/17735-kinzie-st-102/45853117/,LARD1.5
33.923297999999996,-118.090725,11381 Hercules St,Single Family Residence,"4 beds, 2 baths","1,630 sqft","4,890 sqft",1951.0,8022023010,1110744764,Los Angeles,16767,3.0,550202.0,609,NOR105,09/16/2020,"$565,000","$608,000",https://www.realtytrac.com/property/ca/norwalk/90650/11381-hercules-st/154930123/,NOR105
34.448506,-118.67361899999999,30814 San Martinez Rd,Residential - Vacant Land,"2 beds, 1 bath","1,540 sqft","12,094 sqft",1941.0,3270013071,1110744897,Los Angeles,8676,1.0,920106.0,162,LCR1*,09/16/2020,"$320,000","$418,000",https://www.realtytrac.com/property/ca/castaic/91384/30814-san-martinez-rd/154478833/,LCR1*
33.901751000000004,-118.247831,813 N Evers Ave,Single Family Residence,"3 beds, 1 bath","1,088 sqft","5,119 sqft",1952.0,6143017013,1110745100,Los Angeles,16630,1.0,542800.0,54,CORL*,09/16/2020,"$490,000","$478,000",https://www.realtytrac.com/property/ca/compton/90220/813-n-evers-ave/53147319/,CORL*
33.879469,-118.32985500000001,16607 Falda Ave,Single Family Residence,"3 beds, 2 baths","1,304 sqft","5,001 sqft",1952.0,4092010002,1110745606,Los Angeles,17689,1.0,650004.0,40,TORR-LO,09/16/2020,"$800,000","$741,000",https://www.realtytrac.com/property/ca/torrance/90504/16607-falda-ave/154494854/,TORR-LO
34.189316,-118.433793,6529 Matilija Ave,Single Family Residence,"3 beds, 2 baths","1,431 sqft","11,249 sqft",1954.0,2238016018,1110745638,Los Angeles,1000,1.0,128101.0,17,LAR1,09/16/2020,"$2,200,000","$799,000",https://www.realtytrac.com/property/ca/van-nuys/91401/6529-matilija-ave/154398527/,LAR1
33.975173999999996,-117.870225,2419 Coraview Ln,Single Family Residence,"7 beds, 6 baths","3,745 sqft","10,086 sqft",1987.0,8269007039,1110746221,Los Angeles,43710,1.0,408706.0,30,LCA115000*,09/16/2020,"$1,005,000","$790,000",https://www.realtytrac.com/property/ca/rowland-heights/91748/2419-coraview-ln/154953189/,LCA115000*
34.065765,-118.04873,10118 Rio Hondo Pkwy,"Triplex (3 units, any combination)","4 beds, 4 baths","2,598 sqft","18,039 sqft",1951.0,8581022015,1110746222,Los Angeles,10810,1.0,433101.0,9,EMR3*,09/16/2020,"$720,000","$719,000",https://www.realtytrac.com/property/ca/el-monte/91733/10118-rio-hondo-pkwy/149832789/,EMR3*
34.385238,-118.580483,25507 Chisom Ln,Single Family Residence,"4 beds, 3 baths","1,622 sqft","5,346 sqft",1996.0,2826066023,1110746417,Los Angeles,44353,1.0,920326.0,71,LCA25*,09/16/2020,"$623,000","$670,000",https://www.realtytrac.com/property/ca/stevenson-ranch/91381/25507-chisom-ln/22161235/,LCA25*
34.102923,-117.88391100000001,377 E Nubia St,Single Family Residence,"4 beds, 2 baths","1,255 sqft","7,045 sqft",1955.0,8406014008,1110746680,Los Angeles,21153,1.0,405900.0,16,CVR1*,09/16/2020,"$260,000","$580,000",https://www.realtytrac.com/property/ca/covina/91722/377-e-nubia-st/25225819/,CVR1*
34.163348,-117.904173,12 Whispering Willow Ct,Single Family Residence,"3 beds, 3 baths","2,907 sqft","6,021 sqft",2002.0,8684047008,1110746737,Los Angeles,,1.0,400603.0,100,AZW-CF*,09/16/2020,"$815,000","$818,000",https://www.realtytrac.com/property/ca/azusa/91702/12-whispering-willow-ct/46034647/,AZW-CF*
34.141913,-118.03548799999999,202 San Antonio Rd,Single Family Residence,"4 beds, 4 baths","3,308 sqft","11,402 sqft",1997.0,5775019002,1110746766,Los Angeles,12506,1.0,430721.0,27,ARR1YY,09/16/2020,"$1,700,000","$1,782,000",https://www.realtytrac.com/property/ca/arcadia/91007/202-san-antonio-rd/51912916/,ARR1YY
33.852403,-118.11877,5827 Dashwood St,Single Family Residence,"4 beds, 2 baths","1,780 sqft","5,100 sqft",1951.0,7173008025,1110746936,Los Angeles,16217,1.0,570902.0,129,LKR1*,09/16/2020,"$760,000","$729,000",https://www.realtytrac.com/property/ca/lakewood/90713/5827-dashwood-st/154683201/,LKR1*
33.756875,-118.128433,131 Siena Dr,Single Family Residence,"5 beds, 3 baths","3,434 sqft","3,249 sqft",1928.0,7244015017,1110746977,Los Angeles,7753,3.0,577501.0,19,LBR1S,09/16/2020,"$2,425,500","$1,420,000",https://www.realtytrac.com/property/ca/long-beach/90803/131-siena-dr/154878921/,LBR1S
34.123234000000004,-118.110569,1342 Bedford Rd,Single Family Residence,"4 beds, 3 baths","3,126 sqft","14,718 sqft",1936.0,5328026020,1110746982,Los Angeles,10895,7.0,464100.0,8,SOR115000*,09/16/2020,"$2,900,000","$2,397,000",https://www.realtytrac.com/property/ca/san-marino/91108/1342-bedford-rd/154707525/,SOR115000*
34.473824,-118.644356,30519 Cordoba Pl,Single Family Residence,"4 beds, 3 baths","2,541 sqft","9,432 sqft",2000.0,3247056020,1110747055,Los Angeles,47353,2.0,920116.0,20,Lot:20,09/16/2020,"$750,000","$691,000",https://www.realtytrac.com/property/ca/castaic/91384/30519-cordoba-pl/40222546/,Lot:20
34.018493,-118.170644,1211 S Mcbride Ave,"Duplex (2 units, any combination)","3 beds, 2 baths","1,561 sqft","5,359 sqft",1926.0,5246008002,1110747484,Los Angeles,5135,1.0,531502.0,105,LCM1*,09/16/2020,"$475,000","$559,000",https://www.realtytrac.com/property/ca/los-angeles/90022/1211-s-mcbride-ave/154675213/,LCM1*
34.072697,-118.16291799999999,5476 Dobbs St # 97,Condominium,"2 beds, 1 bath",733 sqft,3.83 acres,1982.0,5221012131,1110747497,Los Angeles,37441,3.0,201700.0,,LARD1.5,09/16/2020,"$360,000","$363,000",https://www.realtytrac.com/property/ca/los-angeles/90032/5476-dobbs-st-97/154668527/,LARD1.5
33.865006,-118.355218,18212 Mansel Ave,Single Family Residence,"3 beds, 2 baths","1,616 sqft","5,998 sqft",1974.0,4083005007,1110747545,Los Angeles,BELVIDERE,5.0,650300.0,8,TORR-LM,09/16/2020,"$173,500","$851,000",https://www.realtytrac.com/property/ca/redondo-beach/90278/18212-mansel-ave/24125885/,TORR-LM
34.462687,-118.423432,30430 N Brandywine Canyon Rd,Single Family Residence,"3 beds, 1 bath","1,360 sqft",0.99 acres,1957.0,3231005001,1110747562,Los Angeles,3253,1.0,920033.0,3,LCA11*,09/16/2020,"$525,000","$162,000",https://www.realtytrac.com/property/ca/canyon-country/91351/30430-n-brandywine-canyon-rd/144519524/,LCA11*
34.125074,-117.703799,645 Martin Way,Single Family Residence,"4 beds, 2 baths","2,135 sqft","19,322 sqft",1977.0,8671036056,1110747573,Los Angeles,30998,1.0,400206.0,3,CLRS13000*,09/16/2020,"$885,000","$798,000",https://www.realtytrac.com/property/ca/claremont/91711/645-martin-way/43983155/,CLRS13000*
33.773548999999996,-118.182974,523 Olive Ave,Single Family Residence,"1 bed, 1 bath",556 sqft,"1,473 sqft",1912.0,7281003023,1110747592,Los Angeles,LONG BEACH,1.0,576200.0,13,LBPD30,09/16/2020,"$440,000","$428,000",https://www.realtytrac.com/property/ca/long-beach/90802/523-olive-ave/209001752/,LBPD30
33.929419,-118.35544499999999,4527 W 116th St # B,"Triplex (3 units, any combination)","9 beds, 6 baths","3,640 sqft","5,207 sqft",1965.0,4044010018,1110747790,Los Angeles,BELLE VIEW TR,3.0,602103.0,149,HAR3YY,09/16/2020,"$1,202,000","$950,000",https://www.realtytrac.com/property/ca/hawthorne/90250/4527-w-116th-st-b/51895314/,HAR3YY
33.960489,-118.094875,8255 Orange Ave,Single Family Residence,"3 beds, 1 bath","1,358 sqft","5,580 sqft",1950.0,6384019008,1110747972,Los Angeles,16166,5.0,502601.0,268,PRSF*,09/16/2020,"$560,000","$542,000",https://www.realtytrac.com/property/ca/pico-rivera/90660/8255-orange-ave/147869740/,PRSF*
34.245162,-118.50333799999999,9620 Paso Robles Ave,Single Family Residence,"4 beds, 5 baths","4,953 sqft","14,416 sqft",2004.0,2692024015,1110748027,Los Angeles,52617,1.0,115101.0,15,LARE11,04/02/2012,"$815,000","$1,310,000",https://www.realtytrac.com/property/ca/northridge/91325/9620-paso-robles-ave/17661354/,LARE11
34.251889,-118.506836,17150 Vintage St,Single Family Residence,"4 beds, 3 baths","1,801 sqft","12,122 sqft",1960.0,2694017008,1110748774,Los Angeles,18654,1.0,111302.0,65,LARE11,09/16/2020,"$700,000","$756,000",https://www.realtytrac.com/property/ca/northridge/91325/17150-vintage-st/145511449/,LARE11
34.06012,-118.35563,816 S Curson Ave,"Duplex (2 units, any combination)","6 beds, 4 baths","4,387 sqft","6,478 sqft",1929.0,5089016004,1110748804,Los Angeles,5798,1.0,216300.0,12,LAR2,09/16/2020,"$1,900,000","$2,006,000",https://www.realtytrac.com/property/ca/los-angeles/90036/816-s-curson-ave/16947018/,LAR2
34.22227,-118.54068600000001,18701 Schoenborn St,Single Family Residence,"3 beds, 2 baths","2,223 sqft","7,484 sqft",1958.0,2785020020,1110749146,Los Angeles,22150,1.0,115404.0,23,LARS,09/16/2020,"$720,000","$721,000",https://www.realtytrac.com/property/ca/northridge/91324/18701-schoenborn-st/23325835/,LARS
34.471218,-118.56471299999998,24309 Via La Casa,Single Family Residence,"4 beds, 3 baths","3,437 sqft","6,294 sqft",2003.0,3244182054,1110749401,Los Angeles,51644-08,1.0,920107.0,127,LCA22*,09/16/2020,"$775,000","$861,000",https://www.realtytrac.com/property/ca/valencia/91354/24309-via-la-casa/8164960/,LCA22*
33.852641,-118.131927,5219 Fidler Ave,Single Family Residence,"2 beds, 1 bath",889 sqft,"6,459 sqft",1950.0,7172003013,1110749600,Los Angeles,16215,3.0,570800.0,626,LKR1YY,09/16/2020,"$521,000","$610,000",https://www.realtytrac.com/property/ca/lakewood/90712/5219-fidler-ave/154681286/,LKR1YY
33.933665999999995,-117.999271,15444 Lashburn St,Single Family Residence,"3 beds, 1 bath","1,386 sqft","6,577 sqft",1952.0,8229006002,1110749763,Los Angeles,17667,4.0,503502.0,77,WHR106,09/16/2020,"$585,000","$601,000",https://www.realtytrac.com/property/ca/whittier/90604/15444-lashburn-st/154949135/,WHR106
33.945840999999994,-118.2179,3022 Nebraska Ave,Apartment house (5+ units),,"2,400 sqft","5,039 sqft",1942.0,6206011011,1110750055,Los Angeles,4753,2.0,535605.0,110,SGCM-R4*,09/16/2020,"$1,775,000","$501,000",https://www.realtytrac.com/property/ca/south-gate/90280/3022-nebraska-ave/154830731/,SGCM-R4*
34.061073,-118.30963899999999,3810 Wilshire Blvd # 1109,Condominium,"1 bed, 1 bath",710 sqft,1.47 acres,1962.0,5093027111,1110750056,Los Angeles,62784,1.0,212610.0,2,LAR4,09/16/2020,"$480,000","$469,000",https://www.realtytrac.com/property/ca/los-angeles/90010/3810-wilshire-blvd-1109/28400676/,LAR4
33.974862,-118.303477,1529 W Florence Ave,Office Building,,"1,210 sqft","3,213 sqft",1947.0,6015034022,1110750416,Los Angeles,4580,3.0,237402.0,287,LAC2,09/16/2020,"$540,000",,https://www.realtytrac.com/property/ca/los-angeles/90047/1529-w-florence-ave/16533011/,LAC2
34.682512,-118.144108,44008 Hardwood Ave,Single Family Residence,"2 beds, 1 bath",927 sqft,"6,010 sqft",1952.0,3131019010,1110750657,Los Angeles,17396,2.0,900701.0,20,LRR17000*,09/16/2020,"$238,000","$217,000",https://www.realtytrac.com/property/ca/lancaster/93534/44008-hardwood-ave/26997798/,LRR17000*
34.073624,-118.271621,451 Coronado Ter,Apartment house (5+ units),"7 beds, 8 baths","6,250 sqft","12,954 sqft",1961.0,5157005021,1110750680,Los Angeles,7870,3.0,195710.0,18,LAR3,09/16/2020,"$1,690,000","$1,265,000",https://www.realtytrac.com/property/ca/los-angeles/90026/451-coronado-ter/149757984/,LAR3
33.832336,-118.247804,1415 E Carson St # 14,Condominium,"3 beds, 2 baths","1,145 sqft",0.77 acres,1984.0,7326020093,1110750700,Los Angeles,38825,1.0,543306.0,1,CARM25U*,09/16/2020,"$450,000","$400,000",https://www.realtytrac.com/property/ca/carson/90745/1415-e-carson-st-14/154574254/,CARM25U*
34.085751,-118.387616,8999 Norma Pl,"Duplex (2 units, any combination)","3 beds, 2 baths","1,470 sqft","3,286 sqft",1946.0,4340020001,1110750993,Los Angeles,6471,3.0,700501.0,16,WDR1B*,09/16/2020,"$1,800,000","$1,644,000",https://www.realtytrac.com/property/ca/west-hollywood/90069/8999-norma-pl/154571030/,WDR1B*
34.313,-118.441216,14166 Oro Grande St,Condominium,"4 beds, 2 baths","1,506 sqft",2.84 acres,1980.0,2504018094,1110751092,Los Angeles,33822,1.0,106408.0,,LARD3,09/16/2020,"$490,000","$453,000",https://www.realtytrac.com/property/ca/sylmar/91342/14166-oro-grande-st/9362173/,LARD3
34.1277,-117.905,849 E Clementine St,Condominium,"3 beds, 3 baths","1,685 sqft",,2018.0,8624021138,1110751494,Los Angeles,,2.0,404202.0,13,AZR3B*,09/16/2020,"$548,000","$556,000",https://www.realtytrac.com/property/ca/azusa/91702/849-e-clementine-st/325992929/,AZR3B*
34.469235999999995,-118.618876,30367 Cedar Oak Ln,Condominium,"3 beds, 3 baths","1,861 sqft",2.23 acres,2001.0,2865093102,1110751549,Los Angeles,51995-03,2.0,920118.0,1,LCM1DP*,09/16/2020,"$560,000","$519,000",https://www.realtytrac.com/property/ca/castaic/91384/30367-cedar-oak-ln/17702999/,LCM1DP*
34.061073,-118.30963899999999,3810 Wilshire Blvd # 412,Condominium,"2 beds, 2 baths","1,290 sqft",1.47 acres,1962.0,5093027030,1110751714,Los Angeles,62784,1.0,212610.0,2,LAR4,09/16/2020,"$735,000","$732,000",https://www.realtytrac.com/property/ca/los-angeles/90010/3810-wilshire-blvd-412/142039922/,LAR4
33.903633,-118.323315,14021 S Wilkie Ave,Single Family Residence,"4 beds, 2 baths","1,922 sqft","9,116 sqft",1957.0,4059011025,1110751734,Los Angeles,23039,1.0,602600.0,70,GAR1,09/16/2020,"$740,000","$744,000",https://www.realtytrac.com/property/ca/gardena/90249/14021-s-wilkie-ave/45907234/,GAR1
33.863869,-118.131143,5957 Premiere Ave,Single Family Residence,"3 beds, 2 baths","1,304 sqft","5,752 sqft",1943.0,7167007026,1110751814,Los Angeles,12894,3.0,570002.0,49,LKR1YY,10/01/1946,,"$634,000",https://www.realtytrac.com/property/ca/lakewood/90712/5957-premiere-ave/154866634/,LKR1YY
34.563703000000004,-118.16909199999999,37458 Persimmon Ln,Single Family Residence,"4 beds, 3 baths","2,691 sqft","5,507 sqft",2005.0,3206047019,1110751984,Los Angeles,53888-02,1.0,910206.0,78,PDSP,09/16/2020,"$425,000","$435,000",https://www.realtytrac.com/property/ca/palmdale/93551/37458-persimmon-ln/16492600/,PDSP
34.176509,-118.29036699999999,1214 Allen Ave,Single Family Residence,"4 beds, 2 baths","1,457 sqft","7,621 sqft",1925.0,5621004021,1110752241,Los Angeles,4585,2.0,301501.0,36,GLR1*,09/16/2020,"$848,500","$903,000",https://www.realtytrac.com/property/ca/glendale/91201/1214-allen-ave/154780734/,GLR1*
34.065575,-118.286629,436 S Virgil Ave # 401,Condominium,"2 beds, 2 baths","1,110 sqft",0.72 acres,2015.0,5077001076,1110752677,Los Angeles,,3.0,211120.0,1,LACR,09/16/2020,"$705,000","$760,000",https://www.realtytrac.com/property/ca/los-angeles/90020/436-s-virgil-ave-401/323429601/,LACR
34.069606,-118.32169499999999,267 S Windsor Blvd,Single Family Residence,"3 beds, 5 baths","3,271 sqft","12,909 sqft",1961.0,5515030017,1110752706,Los Angeles,3743,3.0,211500.0,15,LARE9,09/16/2020,"$4,500,000","$2,826,000",https://www.realtytrac.com/property/ca/los-angeles/90004/267-s-windsor-blvd/154764685/,LARE9
34.126655,-118.75376299999999,28950 Wagon Rd,Single Family Residence,"4 beds, 5 baths","3,342 sqft",1.86 acres,1979.0,2063016012,1110752753,Los Angeles,,1.0,800329.0,20,LCR19000*,09/16/2020,"$2,000,000","$1,945,000",https://www.realtytrac.com/property/ca/agoura-hills/91301/28950-wagon-rd/52062342/,LCR19000*
33.742194,-118.30767900000001,1455 W 2nd St,Single Family Residence,"3 beds, 1 bath","1,862 sqft","3,126 sqft",1979.0,7452019008,1110752831,Los Angeles,ATALYA,1.0,296402.0,11,LAR1,09/16/2020,"$762,500","$754,000",https://www.realtytrac.com/property/ca/san-pedro/90732/1455-w-2nd-st/51861305/,LAR1
34.098836,-118.04983100000001,5324 Baldwin Ave,Apartment house (5+ units),"26 beds, 47 baths",0.62 acres,1.01 acres,1960.0,8585001006,1110752890,Los Angeles,10558,3.0,432101.0,7,TCR3*,09/16/2020,"$3,100,000","$889,000",https://www.realtytrac.com/property/ca/temple-city/91780/5324-baldwin-ave/154983504/,TCR3*
34.328359999999996,-118.43999,14074 Carlton Ln,Condominium,"3 beds, 3 baths","2,050 sqft",8.78 acres,2007.0,2582041019,1110753137,Los Angeles,54185,1.0,106010.0,1,LARD6,09/16/2020,"$450,000","$490,000",https://www.realtytrac.com/property/ca/sylmar/91342/14074-carlton-ln/30476765/,LARD6
34.248649,-118.26263999999999,5025 Glencove Ave,Single Family Residence,"3 beds, 2 baths","1,657 sqft","10,594 sqft",1959.0,5601003003,1110753515,Los Angeles,18772,2.0,300301.0,12,GLR1YY,09/16/2020,"$970,000","$1,017,000",https://www.realtytrac.com/property/ca/la-crescenta/91214/5025-glencove-ave/154777968/,GLR1YY
33.910713,-118.10258799999998,13303 Halcourt Ave,Single Family Residence,"3 beds, 1 bath","1,249 sqft","5,200 sqft",1951.0,8050008016,1110753536,Los Angeles,16894,3.0,551900.0,185,NOR1*,09/16/2020,"$510,000","$577,000",https://www.realtytrac.com/property/ca/norwalk/90650/13303-halcourt-ave/154715616/,NOR1*
34.565222999999996,-118.16655800000001,2130 Tangerine St,Single Family Residence,"4 beds, 3 baths","3,240 sqft","8,287 sqft",2005.0,3206041017,1110753596,Los Angeles,53888,1.0,910401.0,49,PDSP,09/16/2020,"$469,000","$459,000",https://www.realtytrac.com/property/ca/palmdale/93551/2130-tangerine-st/21677053/,PDSP
33.893522999999995,-118.088002,15113 Roseton Ave,Single Family Residence,"2 beds, 1 bath","1,418 sqft","4,992 sqft",1952.0,8079007011,1110753632,Los Angeles,6669,3.0,552900.0,191,NOR1YY,05/01/2019,"$530,000","$603,000",https://www.realtytrac.com/property/ca/norwalk/90650/15113-roseton-ave/29427177/,NOR1YY
34.204948,-118.1827,4956 Crown Ave,Single Family Residence,"3 beds, 2 baths","2,174 sqft","7,911 sqft",1954.0,5817024002,1110753693,Los Angeles,13830,3.0,460501.0,1,LFR110000*,04/10/2001,"$665,000","$1,509,000",https://www.realtytrac.com/property/ca/la-canada-flintridge/91011/4956-crown-ave/49128475/,LFR110000*
33.980754,-118.23288899999999,6501 Albany St,"Duplex (2 units, any combination)","5 beds, 2 baths","2,073 sqft","6,834 sqft",1922.0,6321019008,1110754181,Los Angeles,SECOND ADD,2.0,532603.0,7,HPR3YY,09/16/2020,"$375,000","$581,000",https://www.realtytrac.com/property/ca/huntington-park/90255/6501-albany-st/3198501/,HPR3YY
34.051617,-118.429379,10630 Missouri Ave,Single Family Residence,"3 beds, 2 baths","1,424 sqft","7,438 sqft",1948.0,4321005029,1110754430,Los Angeles,5609,1.0,267100.0,12,LAR1,09/16/2020,"$1,670,000","$1,623,000",https://www.realtytrac.com/property/ca/los-angeles/90025/10630-missouri-ave/154573176/,LAR1
34.086028000000006,-118.210723,3531 Griffin Ave,"Duplex (2 units, any combination)","4 beds, 2 baths","1,622 sqft","6,178 sqft",1905.0,5207003015,1110674325,Los Angeles,517,3.0,199400.0,3,LAR1,09/15/2020,"$785,000","$654,000",https://www.realtytrac.com/property/ca/los-angeles/90031/3531-griffin-ave/49067399/,LAR1
34.435452000000005,-118.483759,19849 Larbert St,Single Family Residence,"4 beds, 2 baths","1,440 sqft","5,929 sqft",1964.0,2801018022,1110675734,Los Angeles,28076,1.0,920029.0,32,SCUR2,09/15/2020,"$590,000","$541,000",https://www.realtytrac.com/property/ca/canyon-country/91351/19849-larbert-st/24381319/,SCUR2
33.891521000000004,-118.40103899999998,1804 Palm Ave,Single Family Residence,"5 beds, 4 baths","2,636 sqft","4,480 sqft",2000.0,4171019019,1110675759,Los Angeles,2714,2.0,620303.0,7,MNRS,09/15/2020,"$3,600,000","$2,406,000",https://www.realtytrac.com/property/ca/manhattan-beach/90266/1804-palm-ave/51732170/,MNRS
34.062391,-118.337544,4925 Wilshire Blvd # 39,Condominium,"3 beds, 3 baths","2,553 sqft","19,079 sqft",2003.0,5507018039,1110676339,Los Angeles,53578,5.0,211000.0,1,LACR(PKM),09/15/2020,"$1,365,000","$1,298,000",https://www.realtytrac.com/property/ca/los-angeles/90010/4925-wilshire-blvd-39/24697472/,LACR(PKM)
33.992369000000004,-117.94454499999999,1620 Coach Pl,Condominium,"3 beds, 3 baths","1,652 sqft",2.57 acres,1987.0,8207020082,1110676344,Los Angeles,39250,1.0,408624.0,6,LCRPD600015U*,09/15/2020,"$590,000","$596,000",https://www.realtytrac.com/property/ca/hacienda-heights/91745/1620-coach-pl/154722404/,LCRPD600015U*
34.646891,-118.231342,5651 W Avenue L15,Single Family Residence,"4 beds, 3 baths","2,525 sqft","11,672 sqft",1991.0,3102037060,1110677107,Los Angeles,44305,1.0,901101.0,54,LRR7000*,09/15/2020,"$510,000","$431,000",https://www.realtytrac.com/property/ca/lancaster/93536/5651-w-avenue-l15/12428304/,LRR7000*
34.445067,-118.478095,19560 Laroda Ln # 236,Condominium,"2 beds, 2 baths","1,121 sqft",1.94 acres,2005.0,2812099108,1110680458,Los Angeles,46018-04,1.0,920028.0,1,LCA21*,09/15/2020,"$405,000","$423,000",https://www.realtytrac.com/property/ca/santa-clarita/91350/19560-laroda-ln-236/27069659/,LCA21*
33.937595,-118.362154,10816 S Burl Ave,Single Family Residence,"1 bed, 1 bath",480 sqft,"4,424 sqft",1938.0,4039030010,1110681159,Los Angeles,546,2.0,601600.0,11,LCR2YY,09/15/2020,"$461,000","$450,000",https://www.realtytrac.com/property/ca/inglewood/90304/10816-s-burl-ave/148684012/,LCR2YY
34.010040000000004,-117.96723,1207 Farmstead Ave,Single Family Residence,"3 beds, 1 bath","1,042 sqft","11,457 sqft",1950.0,8218020047,1110681758,Los Angeles,3081,1.0,408501.0,1,LCA106,09/15/2020,"$615,000","$504,000",https://www.realtytrac.com/property/ca/la-puente/91745/1207-farmstead-ave/19143511/,LCA106
33.898844,-118.40700700000001,700 33rd St,Single Family Residence,"5 beds, 5 baths","3,844 sqft","10,046 sqft",1949.0,4174009001,1110683109,Los Angeles,2474,2.0,620301.0,2,MNRS,09/15/2020,"$3,875,000","$2,592,000",https://www.realtytrac.com/property/ca/manhattan-beach/90266/700-33rd-st/154517237/,MNRS
,,18450 W Calico Ln,Residential - Vacant Land,,,,,2786026006,1110683119,Los Angeles,,,,6,LAC2,09/15/2020,"$611,500",,https://www.realtytrac.com/property/ca/northridge/91325/18450-w-calico-ln/330490309/,LAC2
34.153048,-118.497801,16688 Ashley Oaks,Single Family Residence,"6 beds, 6 baths","4,303 sqft","17,084 sqft",1977.0,2289024007,1110685266,Los Angeles,29906,4.0,139701.0,6,LARE15,09/15/2020,"$2,700,000","$2,960,000",https://www.realtytrac.com/property/ca/encino/91436/16688-ashley-oaks/154406657/,LARE15
34.148296,-118.77649299999999,5312 Mark Ct,Planned Unit Development (PUD),"3 beds, 3 baths","1,676 sqft","3,448 sqft",1989.0,2053011253,1110685841,Los Angeles,33690,4.0,800324.0,12,AHRPD70006U*,09/15/2020,"$630,000","$630,000",https://www.realtytrac.com/property/ca/agoura-hills/91301/5312-mark-ct/52776493/,AHRPD70006U*
34.452677,-118.53311299999999,22661 Barcotta Dr,Single Family Residence,"5 beds, 2 baths","1,753 sqft","7,355 sqft",1968.0,2807005017,1110687874,Los Angeles,25175,3.0,920018.0,64,SCUR2,09/15/2020,"$525,000","$587,000",https://www.realtytrac.com/property/ca/santa-clarita/91350/22661-barcotta-dr/18029187/,SCUR2
34.185181,-118.63403400000001,23270 Friar St,Single Family Residence,"4 beds, 2 baths","2,101 sqft","5,743 sqft",1961.0,2035020037,1110687917,Los Angeles,9587,3.0,135202.0,155,LARA,09/15/2020,"$927,000","$795,000",https://www.realtytrac.com/property/ca/woodland-hills/91367/23270-friar-st/40234941/,LARA
34.215137,-118.623819,7947 Fallbrook Ave,Single Family Residence,"3 beds, 2 baths","1,372 sqft","8,400 sqft",1957.0,2014012002,1110688549,Los Angeles,21392,3.0,134302.0,2,LARS,09/15/2020,"$655,000","$655,000",https://www.realtytrac.com/property/ca/west-hills/91304/7947-fallbrook-ave/100013386/,LARS
34.135751,-117.84871899999999,954 E Foothill Blvd,Single Family Residence,"3 beds, 2 baths","2,067 sqft","19,691 sqft",1912.0,8649030027,1110688559,Los Angeles,JAMES F WASHBURNS,1.0,401101.0,12,GDE4,11/25/1992,,"$735,000",https://www.realtytrac.com/property/ca/glendora/91741/954-e-foothill-blvd/154991956/,GDE4
34.183446999999994,-118.648096,6177 Lockhurst Dr,Single Family Residence,"5 beds, 3 baths","2,613 sqft","10,180 sqft",1960.0,2033025002,1110688603,Los Angeles,21895,2.0,135203.0,91,LARS,09/15/2020,"$750,000","$1,049,000",https://www.realtytrac.com/property/ca/woodland-hills/91367/6177-lockhurst-dr/141314331/,LARS
34.012716999999995,-117.81094399999999,23342 Stirrup Dr,Single Family Residence,"4 beds, 3 baths","2,460 sqft","7,888 sqft",1975.0,8717017029,1110690658,Los Angeles,31140,1.0,403319.0,96,LCR18000*,09/15/2020,"$755,000","$745,000",https://www.realtytrac.com/property/ca/diamond-bar/91765/23342-stirrup-dr/152477151/,LCR18000*
34.544706,-118.044886,36509 Dewdrop Ct,Single Family Residence,"4 beds, 4 baths","2,955 sqft","8,771 sqft",2006.0,3051049035,1110690695,Los Angeles,46356,1.0,910706.0,35,PDR1-7000,09/15/2020,"$405,000","$400,000",https://www.realtytrac.com/property/ca/palmdale/93552/36509-dewdrop-ct/26837747/,PDR1-7000
34.129128,-117.98513500000001,1002 Hurstview St,Single Family Residence,"4 beds, 3 baths","1,864 sqft","5,992 sqft",1948.0,8531019012,1110692034,Los Angeles,15407,3.0,430102.0,20,DUR16500*,09/15/2020,"$620,000","$580,000",https://www.realtytrac.com/property/ca/duarte/91010/1002-hurstview-st/17425925/,DUR16500*
34.143691,-117.98216699999999,1040 Orange Ave,Single Family Residence,"3 beds, 2 baths","1,641 sqft","6,662 sqft",1961.0,8526008033,1110692590,Los Angeles,24082,2.0,431002.0,26,MORL*,,,"$817,000",https://www.realtytrac.com/property/ca/monrovia/91016/1040-orange-ave/142239730/,MORL*
34.08488,-118.371307,750 N Kings Rd # 111,Condominium,"1 bed, 1 bath",664 sqft,1.46 acres,1973.0,5528003063,1110693346,Los Angeles,37172,2.0,194402.0,,LAR3,09/15/2020,"$519,000","$520,000",https://www.realtytrac.com/property/ca/los-angeles/90069/750-n-kings-rd-111/40482738/,LAR3
33.950415,-118.18958300000001,8971 Kauffman Ave,"Triplex (3 units, any combination)","5 beds, 4 baths","2,061 sqft","7,671 sqft",1947.0,6216019019,1110693363,Los Angeles,6666,2.0,536000.0,461,SGR3YY,09/15/2020,"$735,000","$629,000",https://www.realtytrac.com/property/ca/south-gate/90280/8971-kauffman-ave/154663759/,SGR3YY
33.787378000000004,-118.367046,5107 Willow Wood Rd,Single Family Residence,"3 beds, 2 baths","1,673 sqft","12,841 sqft",1956.0,7576013014,1110693940,Los Angeles,21271,1.0,670202.0,74,RERA10000*,09/15/2020,"$1,510,000","$1,501,000",https://www.realtytrac.com/property/ca/rolling-hills-estates/90274/5107-willow-wood-rd/154925168/,RERA10000*
34.175469,-118.430462,5753 Buffalo Ave,Single Family Residence,"3 beds, 2 baths","1,458 sqft","6,011 sqft",1937.0,2343006011,1110693962,Los Angeles,9821,2.0,124500.0,23,LAR1,09/15/2020,"$915,000","$845,000",https://www.realtytrac.com/property/ca/van-nuys/91401/5753-buffalo-ave/7238685/,LAR1
34.447945000000004,-118.668043,30530 San Martinez Rd,Single Family Residence,"4 beds, 2 baths","1,241 sqft","4,944 sqft",1970.0,3270016040,1110694674,Los Angeles,8676,1.0,920106.0,84,LCR1*,06/22/2001,,"$399,000",https://www.realtytrac.com/property/ca/castaic/91384/30530-san-martinez-rd/48932728/,LCR1*
,,1185 Tangerine Dr,Residential - Vacant Land,,,,,8406002183,1110696068,Los Angeles,,,,3,CVC3A*,09/15/2020,"$618,000",,https://www.realtytrac.com/property/ca/covina/91722/1185-tangerine-dr/328288168/,CVC3A*
33.841365,-118.376755,121 S Prospect Ave # 4,Condominium,"2 beds, 3 baths","1,470 sqft","13,497 sqft",1979.0,7506001036,1110696075,Los Angeles,35601,1.0,621301.0,,Tract:621301,09/15/2020,"$765,000","$804,000",https://www.realtytrac.com/property/ca/redondo-beach/90277/121-s-prospect-ave-4/154908677/,Tract:621301
33.806307000000004,-118.126171,2770 Montair Ave,Single Family Residence,"3 beds, 2 baths","1,192 sqft","6,613 sqft",1952.0,7222014008,1110698015,Los Angeles,16797,2.0,574201.0,95,LBR1N,09/15/2020,"$750,000","$711,000",https://www.realtytrac.com/property/ca/long-beach/90815/2770-montair-ave/154873593/,LBR1N
33.985588,-118.345184,4035 W 60th St,Single Family Residence,"2 beds, 2 baths","1,172 sqft","5,364 sqft",1936.0,4003006026,1110698049,Los Angeles,5525,2.0,235100.0,510,LAR1,09/15/2020,"$1,003,000","$883,000",https://www.realtytrac.com/property/ca/los-angeles/90043/4035-w-60th-st/23864641/,LAR1
34.165343,-118.320531,240 S Sparks St,Single Family Residence,"3 beds, 1 bath","1,055 sqft","6,074 sqft",1941.0,2445015016,1110700094,Los Angeles,10032,1.0,311700.0,47,BUR1YY,09/15/2020,"$825,000","$744,000",https://www.realtytrac.com/property/ca/burbank/91506/240-s-sparks-st/154425142/,BUR1YY
34.5293,-117.9632,Vac/ave R4 Drt /vic 100th Ste,Residential - Vacant Land,,,0.91 acres,,3041004038,1110700107,Los Angeles,9488,3.0,910001.0,159,LCA11*,09/15/2020,"$40,000",,https://www.realtytrac.com/property/ca/sun-village/93543/vacave-r4-drt-vic-100th-ste/241225849/,LCA11*
33.872559,-118.181652,912 E 65th St,Single Family Residence,"3 beds, 1 bath","1,149 sqft","4,553 sqft",1946.0,7115018001,1110700669,Los Angeles,7155,2.0,570501.0,1,LBR1N,09/15/2020,"$518,000","$500,000",https://www.realtytrac.com/property/ca/long-beach/90805/912-e-65th-st/18310183/,LBR1N
34.365553999999996,-118.54368899999999,23471 Glenridge Dr,Single Family Residence,"4 beds, 3 baths","3,081 sqft","14,542 sqft",1987.0,2827039027,1110700743,Los Angeles,38301,4.0,920313.0,45,SCUR1,09/15/2020,"$839,000","$876,000",https://www.realtytrac.com/property/ca/newhall/91321/23471-glenridge-dr/154460966/,SCUR1
33.997789000000004,-118.269929,4917 S San Pedro St,"Duplex (2 units, any combination)","3 beds, 2 baths","1,687 sqft","7,001 sqft",1922.0,5109008022,1110700777,Los Angeles,E CALDON,2.0,229300.0,8,LARD1.5,09/15/2020,"$500,000","$509,000",https://www.realtytrac.com/property/ca/los-angeles/90011/4917-s-san-pedro-st/46066049/,LARD1.5
33.829741999999996,-118.19849199999999,3942 Country Club Dr,Single Family Residence,"3 beds, 2 baths","2,343 sqft","13,725 sqft",1955.0,7140015004,1110792910,Los Angeles,10701,1.0,571800.0,12,LBR1L,09/17/2020,,"$1,048,000",https://www.realtytrac.com/property/ca/long-beach/90807/3942-country-club-dr/154863576/,LBR1L
34.436126,-118.557258,24034 Whitewater Dr,Single Family Residence,"3 beds, 3 baths","1,647 sqft","2,642 sqft",2005.0,2810091012,1110724168,Los Angeles,54312,1.0,920114.0,78,SCSP,09/15/2020,"$610,000","$616,000",https://www.realtytrac.com/property/ca/santa-clarita/91354/24034-whitewater-dr/154125747/,SCSP
34.243683000000004,-118.412108,9573 Omelveny Ave,Single Family Residence,"4 beds, 2 baths","1,170 sqft","8,135 sqft",1954.0,2626012009,1110726205,Los Angeles,18738,1.0,104821.0,18,LARS,09/15/2020,"$410,000","$510,000",https://www.realtytrac.com/property/ca/pacoima/91331/9573-omelveny-ave/25240702/,LARS
34.424271999999995,-118.43963600000001,28207 Ridge View Dr,Single Family Residence,"3 beds, 2 baths","2,036 sqft","10,726 sqft",1996.0,2839047029,1110727476,Los Angeles,45416-02,1.0,920039.0,29,SCUR1,09/15/2020,"$692,500","$697,000",https://www.realtytrac.com/property/ca/santa-clarita/91387/28207-ridge-view-dr/54835002/,SCUR1
34.124264000000004,-118.082624,6840 La Presa Dr,Single Family Residence,"4 beds, 2 baths","2,206 sqft","9,952 sqft",1949.0,5376010012,1110728811,Los Angeles,,2.0,480002.0,,LCR15000*,09/14/2020,"$1,390,000","$971,000",https://www.realtytrac.com/property/ca/san-gabriel/91775/6840-la-presa-dr/154621356/,LCR15000*
33.823954,-118.34941299999998,3703 W 225th St,Single Family Residence,"3 beds, 2 baths","1,356 sqft","5,263 sqft",1953.0,7368007009,1110734702,Los Angeles,19208,1.0,651102.0,9,TORR-LO,09/15/2020,"$863,000","$894,000",https://www.realtytrac.com/property/ca/torrance/90505/3703-w-225th-st/49098521/,TORR-LO
33.997445,-118.05218400000001,11715 Beverly Dr,Single Family Residence,"3 beds, 2 baths","1,890 sqft","11,421 sqft",1951.0,8126010009,1110735362,Los Angeles,CITRUS GROVE HEIGHTS,1.0,501501.0,59,WHR1YY,09/15/2020,"$725,000","$662,000",https://www.realtytrac.com/property/ca/whittier/90601/11715-beverly-dr/49087281/,WHR1YY
34.137539000000004,-118.128644,1066 San Pasqual St # 12,Condominium,"1 bed, 1 bath",835 sqft,1.32 acres,1962.0,5327003064,1110735958,Los Angeles,379,3.0,463500.0,13,PSR4,09/15/2020,"$525,000","$531,000",https://www.realtytrac.com/property/ca/pasadena/91106/1066-san-pasqual-st-12/10174846/,PSR4
34.152609999999996,-118.740751,5709 Fairview Pl,Single Family Residence,"5 beds, 3 baths","3,294 sqft","20,202 sqft",1981.0,2055020064,1110738050,Los Angeles,,3.0,800327.0,2,AHRA20000*,09/15/2020,"$2,000,000","$1,463,000",https://www.realtytrac.com/property/ca/agoura-hills/91301/5709-fairview-pl/51759902/,AHRA20000*
33.750885,-118.32068000000001,6508 Nancy Rd,Single Family Residence,"4 beds, 4 baths","3,132 sqft","10,083 sqft",1962.0,7557011005,1110738610,Los Angeles,8471,2.0,670702.0,5,RPRS13000*,09/15/2020,"$1,377,500","$1,388,000",https://www.realtytrac.com/property/ca/rancho-palos-verdes/90275/6508-nancy-rd/22324846/,RPRS13000*
34.033481,-118.404576,10101 Lovelane Pl,Single Family Residence,"3 beds, 3 baths","2,838 sqft","8,098 sqft",1952.0,4316017019,1110739385,Los Angeles,15593,5.0,269000.0,135,LAR1,09/15/2020,"$2,250,000","$2,492,000",https://www.realtytrac.com/property/ca/los-angeles/90064/10101-lovelane-pl/21388499/,LAR1
33.945136,-118.307124,10007 S Harvard Blvd,Single Family Residence,"3 beds, 2 baths","1,385 sqft","6,508 sqft",1939.0,6059002029,1110739958,Los Angeles,7464,1.0,238000.0,95,LAR1,09/15/2020,"$525,000","$566,000",https://www.realtytrac.com/property/ca/los-angeles/90047/10007-s-harvard-blvd/23997923/,LAR1
33.826293,-118.108297,3744 Conquista Ave,Single Family Residence,"2 beds, 2 baths","1,259 sqft","5,223 sqft",1954.0,7185026029,1110740002,Los Angeles,15435,5.0,573700.0,487,LCR1YY,09/15/2020,"$636,000","$680,000",https://www.realtytrac.com/property/ca/long-beach/90808/3744-conquista-ave/154683691/,LCR1YY
34.143622,-117.94561999999999,2671 San Pablo Way,Planned Unit Development (PUD),"2 beds, 2 baths","1,158 sqft","5,990 sqft",1981.0,8610001067,1110747854,Los Angeles,41717,5.0,430002.0,8,DUR16500*,09/15/2020,"$480,000","$433,000",https://www.realtytrac.com/property/ca/duarte/91010/2671-san-pablo-way/154987127/,DUR16500*
34.145173,-118.644451,23710 Park Belmonte,Single Family Residence,"5 beds, 4 baths","3,699 sqft","14,565 sqft",1976.0,2069004056,1110750553,Los Angeles,27698,2.0,800204.0,33,LCR110000*,09/01/1978,"$280,002","$1,386,000",https://www.realtytrac.com/property/ca/calabasas/91302/23710-park-belmonte/140447453/,LCR110000*
34.157334000000006,-118.36579499999999,10762 Camarillo St # 5,Condominium,"3 beds, 3 baths","1,740 sqft","8,174 sqft",2008.0,2421016080,1110751247,Los Angeles,,1.0,125502.0,1,LAR3,09/15/2020,"$750,000","$766,000",https://www.realtytrac.com/property/ca/toluca-lake/91602/10762-camarillo-st-5/206865002/,LAR3
34.052184999999994,-118.263888,1100 Wilshire Blvd # 1807,Condominium,"1 bed, 1 bath",770 sqft,0.62 acres,1986.0,5143029016,1110751940,Los Angeles,60706,1.0,209200.0,2,LACW,09/15/2020,"$515,000","$539,000",https://www.realtytrac.com/property/ca/los-angeles/90017/1100-wilshire-blvd-1807/144347451/,LACW
34.163964,-118.16434299999999,680 Westgate St,Single Family Residence,"2 beds, 2 baths","1,358 sqft","17,324 sqft",1952.0,5702021011,1110753199,Los Angeles,5914,1.0,461700.0,11,PSR4,09/15/2020,"$925,000","$757,000",https://www.realtytrac.com/property/ca/pasadena/91103/680-westgate-st/144578326/,PSR4
33.956562,-118.449805,6967 Trolleyway,"Duplex (2 units, any combination)","7 beds, 3 baths","2,424 sqft","3,247 sqft",1956.0,4116032040,1110753997,Los Angeles,8573,2.0,278102.0,4,LAR3,09/15/2020,"$4,400,000","$1,878,000",https://www.realtytrac.com/property/ca/playa-del-rey/90293/6967-trolleyway/154501241/,LAR3
34.181391999999995,-118.20268999999999,2163 Lenore Dr,Single Family Residence,"3 beds, 3 baths","2,301 sqft","10,995 sqft",1977.0,5658026015,1110673398,Los Angeles,25410,1.0,300901.0,1,GLR1R*,07/27/1983,"$240,000","$1,257,000",https://www.realtytrac.com/property/ca/glendale/91206/2163-lenore-dr/54754763/,GLR1R*
34.448419,-118.56148700000001,24154 Fushia Ct,Condominium,"3 beds, 3 baths","1,535 sqft",1.64 acres,2001.0,2810065035,1110674201,Los Angeles,48202-05,1.0,920108.0,5,SCUR3,09/15/2020,"$569,000","$546,000",https://www.realtytrac.com/property/ca/valencia/91354/24154-fushia-ct/45895163/,SCUR3
34.185629,-118.231443,1615 Don Carlos Ave,Single Family Residence,"3 beds, 3 baths","3,122 sqft","13,979 sqft",1935.0,5614005019,1110674743,Los Angeles,SELVAS DE VERDUGO,1.0,300701.0,19,GLR1*,09/15/2020,"$1,815,000","$1,664,000",https://www.realtytrac.com/property/ca/glendale/91208/1615-don-carlos-ave/40275643/,GLR1*
34.406332,-118.43832900000001,17426 Winter Pine Way,Single Family Residence,"4 beds, 3 baths","1,846 sqft","5,994 sqft",2011.0,2841050016,1110674767,Los Angeles,52833-05,1.0,920043.0,16,SCSP,09/15/2020,"$660,000","$654,000",https://www.realtytrac.com/property/ca/santa-clarita/91387/17426-winter-pine-way/219276594/,SCSP
33.861032,-118.361732,2614 Alvord Ln,Single Family Residence,"3 beds, 1 bath","1,167 sqft","5,464 sqft",1953.0,4158022009,1110674774,Los Angeles,18085,2.0,620602.0,109,RBR-1,09/15/2020,"$740,000","$860,000",https://www.realtytrac.com/property/ca/redondo-beach/90278/2614-alvord-ln/154511708/,RBR-1
33.824321999999995,-118.094954,7108 E Carita St,Single Family Residence,"3 beds, 2 baths","1,697 sqft","5,221 sqft",1953.0,7070011020,1110676074,Los Angeles,16619,1.0,573800.0,71,LBR1N,09/15/2020,"$830,000","$774,000",https://www.realtytrac.com/property/ca/long-beach/90808/7108-e-carita-st/10605849/,LBR1N
34.048308,-118.38321599999999,1700 S Wooster St,Single Family Residence,"3 beds, 3 baths","2,215 sqft","6,453 sqft",1937.0,4303008035,1110676149,Los Angeles,11716,3.0,217002.0,21,LAR1,09/15/2020,"$1,600,000","$1,550,000",https://www.realtytrac.com/property/ca/los-angeles/90035/1700-s-wooster-st/43718334/,LAR1
34.214594,-118.25334099999999,3761 Lockerbie Ln,Single Family Residence,"3 beds, 3 baths","2,400 sqft","16,912 sqft",1964.0,5617014032,1110676568,Los Angeles,17567,4.0,300701.0,13,GLR1RY,09/15/2020,"$1,245,000","$1,261,000",https://www.realtytrac.com/property/ca/glendale/91208/3761-lockerbie-ln/154780343/,GLR1RY
33.840099,-118.32465,624 Madrid Ave,Condominium,"4 beds, 3 baths","2,256 sqft","7,003 sqft",1990.0,7354004047,1110676606,Los Angeles,TORRANCE TR,1.0,650901.0,1,TORR-LM,09/15/2020,"$880,000","$807,000",https://www.realtytrac.com/property/ca/torrance/90501/624-madrid-ave/40248398/,TORR-LM
33.933893,-118.16843899999999,10520 Karmont Ave,Single Family Residence,"2 beds, 2 baths","1,167 sqft","6,274 sqft",1948.0,6233008024,1110676940,Los Angeles,14627,1.0,536102.0,201,SGR1YY,09/15/2020,"$565,000","$526,000",https://www.realtytrac.com/property/ca/south-gate/90280/10520-karmont-ave/30569480/,SGR1YY
33.920272,-117.98337,16263 Silvergrove Dr,Single Family Residence,"4 beds, 2 baths","1,586 sqft","6,347 sqft",1962.0,8036018003,1110676957,Los Angeles,24963,2.0,503702.0,158,LCRA6200*,09/15/2020,"$700,000","$759,000",https://www.realtytrac.com/property/ca/whittier/90604/16263-silvergrove-dr/49141431/,LCRA6200*
34.134495,-118.20868200000001,4918 Highland View Ave,Single Family Residence,"3 beds, 2 baths","1,526 sqft","6,021 sqft",1923.0,5686013009,1110676985,Los Angeles,5289,2.0,181400.0,28,LAR1,09/15/2020,"$1,237,000","$1,035,000",https://www.realtytrac.com/property/ca/los-angeles/90041/4918-highland-view-ave/40272187/,LAR1
34.182371999999994,-118.40562800000001,6145 Whitsett Ave # 3,Condominium,"3 beds, 3 baths","1,374 sqft","7,672 sqft",1979.0,2332018064,1110677398,Los Angeles,34097,3.0,123700.0,,LAR3,09/15/2020,"$414,000","$460,000",https://www.realtytrac.com/property/ca/north-hollywood/91606/6145-whitsett-ave-3/146654508/,LAR3
33.829390000000004,-118.373077,5531 Laurette St,Single Family Residence,"5 beds, 5 baths","4,083 sqft","16,184 sqft",2005.0,7516020013,1110678871,Los Angeles,18778,4.0,650702.0,97,TORR-LO,09/15/2020,"$1,885,000","$2,250,000",https://www.realtytrac.com/property/ca/torrance/90503/5531-laurette-st/154911968/,TORR-LO
34.144008,-117.839964,522 Thornhurst Ave,Single Family Residence,"3 beds, 2 baths","1,692 sqft","11,208 sqft",1975.0,8656003038,1110678872,Los Angeles,31732,1.0,400404.0,21,GDE5,09/15/2020,"$798,000","$808,000",https://www.realtytrac.com/property/ca/glendora/91741/522-thornhurst-ave/154584090/,GDE5
34.138445000000004,-118.43588899999999,13976 Aubrey Rd,Single Family Residence,"5 beds, 7 baths","8,146 sqft",0.58 acres,1996.0,2272032043,1110680155,Los Angeles,26135,2.0,141700.0,16,LARE15,09/15/2020,"$8,690,000",,https://www.realtytrac.com/property/ca/beverly-hills/90210/13976-aubrey-rd/154404353/,LARE15
34.152915,-118.34763999999998,212 N Valley St # 15,Condominium,"2 beds, 2 baths","1,258 sqft","15,648 sqft",1981.0,2485001144,1110681058,Los Angeles,36271,3.0,311600.0,,BUR5*,09/15/2020,"$593,000","$555,000",https://www.realtytrac.com/property/ca/burbank/91505/212-n-valley-st-15/43960962/,BUR5*
34.14884,-117.90413600000001,1527 N Nobhill Dr,Single Family Residence,"3 beds, 2 baths","1,824 sqft","10,294 sqft",1964.0,8684036055,1110681522,Los Angeles,26356,2.0,400604.0,50,AZR1AY,09/15/2020,"$718,500","$698,000",https://www.realtytrac.com/property/ca/azusa/91702/1527-n-nobhill-dr/49077277/,AZR1AY
34.216242,-118.400575,8012 Laurelgrove Ave,Single Family Residence,"3 beds, 2 baths","1,146 sqft","7,843 sqft",1948.0,2309013013,1110682008,Los Angeles,13302,1.0,121010.0,142,LAR1,09/15/2020,"$560,000","$488,000",https://www.realtytrac.com/property/ca/north-hollywood/91605/8012-laurelgrove-ave/24881905/,LAR1
34.660920000000004,-118.199193,3805 Balmont St,Single Family Residence,"4 beds, 2 baths","1,302 sqft","6,927 sqft",1987.0,3110026073,1110682065,Los Angeles,42470,3.0,901010.0,18,LRR17OOO*,09/15/2020,"$310,000","$292,000",https://www.realtytrac.com/property/ca/lancaster/93536/3805-balmont-st/3833615/,LRR17OOO*
33.931753,-117.988223,16040 Leffingwell Rd # 92,Condominium,"2 beds, 2 baths",960 sqft,2.38 acres,2006.0,8231038114,1110682364,Los Angeles,33761,3.0,503401.0,1,WHR4*,09/15/2020,"$375,000","$374,000",https://www.realtytrac.com/property/ca/whittier/90603/16040-leffingwell-rd-92/13787594/,WHR4*
34.0614,-118.43522,10645 Wilshire Blvd # 301,Condominium,"2 beds, 2 baths","1,540 sqft","12,844 sqft",1955.0,4360031011,1110682886,Los Angeles,34658,2.0,265202.0,,LAR5,09/24/1998,"$250,000","$832,000",https://www.realtytrac.com/property/ca/los-angeles/90024/10645-wilshire-blvd-301/15887954/,LAR5
33.780986,-118.35521899999999,4112 Quinlin Dr,Single Family Residence,"3 beds, 2 baths","2,063 sqft","9,561 sqft",1973.0,7575022077,1110683335,Los Angeles,26545,1.0,670201.0,144,LCRA15000*,09/15/2020,"$1,549,000","$1,495,000",https://www.realtytrac.com/property/ca/palos-verdes-peninsula/90274/4112-quinlin-dr/7032665/,LCRA15000*
33.9052,-118.0074,12011 Manzanilla Ct,Condominium,"3 beds, 3 baths","1,690 sqft",,2018.0,8034012021,1110685562,Los Angeles,,1.0,503601.0,1,LMR1AWH*,09/15/2020,"$670,000","$684,000",https://www.realtytrac.com/property/ca/la-mirada/90638/12011-manzanilla-ct/325996014/,LMR1AWH*
33.892462,-118.329252,3209 W 153rd St,Single Family Residence,"3 beds, 2 baths","1,182 sqft","5,900 sqft",1943.0,4070009027,1110685631,Los Angeles,12339,1.0,603702.0,27,LCR1YY,04/06/1992,,"$656,000",https://www.realtytrac.com/property/ca/gardena/90249/3209-w-153rd-st/154490455/,LCR1YY
34.202065999999995,-118.33746200000002,2558 N Buena Vista St,"Triplex (3 units, any combination)","4 beds, 3 baths","2,314 sqft","6,473 sqft",1951.0,2473020018,1110686100,Los Angeles,12320,3.0,310400.0,64,BUR4*,09/15/2020,"$1,000,000","$926,000",https://www.realtytrac.com/property/ca/burbank/91504/2558-n-buena-vista-st/154430760/,BUR4*
34.149636,-118.409741,4339 Bellaire Ave,Single Family Residence,"5 beds, 5 baths","3,829 sqft","7,322 sqft",2007.0,2375007100,1110686102,Los Angeles,9245,3.0,143500.0,117,LAR1,09/15/2020,"$2,300,000","$2,055,000",https://www.realtytrac.com/property/ca/studio-city/91604/4339-bellaire-ave/20730578/,LAR1
34.187656,-118.52653400000001,6431 Hesperia Ave,Single Family Residence,"2 beds, 1 bath","1,094 sqft","5,841 sqft",1950.0,2123014017,1110686957,Los Angeles,13921,3.0,132700.0,305,LAR1,09/15/2020,"$665,000","$613,000",https://www.realtytrac.com/property/ca/reseda/91335/6431-hesperia-ave/40257348/,LAR1
33.919028000000004,-118.107602,10607 Meadow Rd,Single Family Residence,"3 beds, 1 bath","1,029 sqft","5,151 sqft",1951.0,8021024013,1110687405,Los Angeles,13816,6.0,550300.0,68,NOR105,09/15/2020,"$536,000","$550,000",https://www.realtytrac.com/property/ca/norwalk/90650/10607-meadow-rd/154929882/,NOR105
34.250386,-118.26821799999999,6278 Day St,Single Family Residence,"3 beds, 2 baths",994 sqft,"5,100 sqft",1959.0,2571009043,1110687821,Los Angeles,18967,3.0,101300.0,32,LAR1,09/15/2020,"$773,000","$653,000",https://www.realtytrac.com/property/ca/tujunga/91042/6278-day-st/154439486/,LAR1
33.905181,-118.06033500000001,13826 Roper Ave,Single Family Residence,"3 beds, 1 bath","1,236 sqft","4,670 sqft",1956.0,8046024012,1110688319,Los Angeles,22418,3.0,552302.0,164,NOR15000*,09/15/2020,"$550,000","$552,000",https://www.realtytrac.com/property/ca/norwalk/90650/13826-roper-ave/146061687/,NOR15000*
